$GPGGA,091228.44,3828.3652,N,10617.3677,E,1,6,3.670,1106.429,M,-39.359,M,0,0*4E
$GPRMC,091228.44,A,3828.3652,N,10617.3677,E,15.899,191.241,160711,0,W,A*0C
$GPVTG,191.241,T,191.241,M,15.899,N,29.445,K,A*21
$GPGSA,A,3,8,11,24,28,26,7,,,,,,,4.355,3.670,2.346*33
$GPGGA,091229.44,3828.3611,N,10617.3667,E,1,6,3.669,1106.325,M,-39.359,M,0,0*4A
$GPRMC,091229.44,A,3828.3611,N,10617.3667,E,13.904,191.316,160711,0,W,A*0B
$GPVTG,191.316,T,191.316,M,13.904,N,25.751,K,A*28
$GPGSA,A,3,8,11,24,28,26,7,,,,,,,4.354,3.669,2.346*3A
$GPGGA,091230.44,3828.3575,N,10617.3657,E,1,6,3.667,1106.244,M,-39.359,M,0,0*48
$GPRMC,091230.44,A,3828.3575,N,10617.3657,E,11.167,192.365,160711,0,W,A*09
$GPVTG,192.365,T,192.365,M,11.167,N,20.682,K,A*2D
$GPGSA,A,3,8,11,24,28,26,7,,,,,,,4.353,3.667,2.346*33
$GPGGA,091231.44,3828.3551,N,10617.3652,E,1,6,3.666,1105.999,M,-39.359,M,0,0*43
$GPRMC,091231.44,A,3828.3551,N,10617.3652,E,7.965,197.538,160711,0,W,A*3D
$GPVTG,197.538,T,197.538,M,7.965,N,14.751,K,A*18
$GPGSA,A,3,8,11,24,28,26,7,,,,,,,4.353,3.666,2.346*32
$GPGGA,091232.44,3828.3541,N,10617.3651,E,1,6,3.665,1106.058,M,-39.359,M,0,0*46
$GPRMC,091232.44,A,3828.3541,N,10617.3651,E,4.337,197.751,160711,0,W,A*3F
$GPVTG,197.751,T,197.751,M,4.337,N,8.031,K,A*2A
$GPGSA,A,3,8,11,24,28,26,7,,,,,,,4.352,3.665,2.347*31
$GPGSV,3,1,10,3,10,61,23,7,68,201,31,8,67,292,33,11,65,125,24*75
$GPGSV,3,2,10,13,2,198,22,17,10,241,24,19,39,48,23,24,47,145,29*7E
$GPGSV,3,3,10,26,13,310,25,28,34,302,29*7C
$GPGGA,091233.44,3828.3541,N,10617.3651,E,1,5,3.699,1106.058,M,-39.359,M,0,0*47
$GPRMC,091233.44,A,3828.3541,N,10617.3651,E,0.000,197.751,160711,0,W,A*3D
$GPVTG,197.751,T,197.751,M,0.000,N,0.000,K,A*23
$GPGSA,A,3,8,11,24,26,7,,,,,,,,4.385,3.699,2.354*30
$GPGGA,091234.44,3828.3541,N,10617.3651,E,1,5,3.698,1106.058,M,-39.359,M,0,0*41
$GPRMC,091234.44,A,3828.3541,N,10617.3651,E,0.000,197.751,160711,0,W,A*3A
$GPVTG,197.751,T,197.751,M,0.000,N,0.000,K,A*23
$GPGSA,A,3,8,11,24,26,7,,,,,,,,4.384,3.698,2.354*30
$GPGGA,091249.44,3828.3543,N,10617.3648,E,1,4,4.085,1106.447,M,-39.359,M,0,0*47
$GPRMC,091249.44,A,3828.3543,N,10617.3648,E,0.000,197.751,160711,0,W,A*3A
$GPVTG,197.751,T,197.751,M,0.000,N,0.000,K,A*23
$GPGSA,A,3,8,11,24,7,,,,,,,,,9.805,4.085,8.913*35
$GPGGA,091250.44,3828.3543,N,10617.3648,E,1,5,3.675,1106.447,M,-39.359,M,0,0*40
$GPRMC,091250.44,A,3828.3543,N,10617.3648,E,0.000,197.751,160711,0,W,A*32
$GPVTG,197.751,T,197.751,M,0.000,N,0.000,K,A*23
$GPGSA,A,3,8,11,24,26,7,,,,,,,,4.367,3.675,2.360*39
$GPGGA,091251.44,3828.3543,N,10617.3648,E,1,5,3.673,1106.447,M,-39.359,M,0,0*47
$GPRMC,091251.44,A,3828.3543,N,10617.3648,E,0.000,197.751,160711,0,W,A*33
$GPVTG,197.751,T,197.751,M,0.000,N,0.000,K,A*23
$GPGSA,A,3,8,11,24,26,7,,,,,,,,4.366,3.673,2.360*3E
$GPGGA,091252.44,3828.3543,N,10617.3648,E,1,5,3.672,1106.518,M,-39.359,M,0,0*4E
$GPRMC,091252.44,A,3828.3543,N,10617.3648,E,0.482,197.751,160711,0,W,A*3E
$GPVTG,197.751,T,197.751,M,0.482,N,0.892,K,A*2E
$GPGSA,A,3,8,11,24,26,7,,,,,,,,4.365,3.672,2.360*3C
$GPGSV,3,1,10,3,10,61,28,7,68,201,31,8,67,291,34,11,65,125,26*78
$GPGSV,3,2,10,13,2,197,23,17,10,241,24,26,13,310,24,24,47,145,32*47
$GPGSV,3,3,10,19,38,48,0,28,34,302,0*4B
$GPGGA,091253.44,3828.3542,N,10617.3647,E,1,5,3.670,1106.543,M,-39.359,M,0,0*4D
$GPRMC,091253.44,A,3828.3542,N,10617.3647,E,0.566,197.751,160711,0,W,A*3A
$GPVTG,197.751,T,197.751,M,0.566,N,1.048,K,A*2B
$GPGSA,A,3,8,11,24,26,7,,,,,,,,4.364,3.670,2.361*3E
$GPGGA,091254.44,3828.3542,N,10617.3647,E,1,4,4.081,1106.543,M,-39.359,M,0,0*44
$GPRMC,091254.44,A,3828.3542,N,10617.3647,E,0.000,197.751,160711,0,W,A*38
$GPVTG,197.751,T,197.751,M,0.000,N,0.000,K,A*23
$GPGSA,A,3,8,11,24,7,,,,,,,,,9.829,4.081,8.941*38
$GPGGA,091255.44,3828.3542,N,10617.3647,E,1,4,4.080,1106.543,M,-39.359,M,0,0*44
$GPRMC,091255.44,A,3828.3542,N,10617.3647,E,0.000,197.751,160711,0,W,A*39
$GPVTG,197.751,T,197.751,M,0.000,N,0.000,K,A*23
$GPGSA,A,3,8,11,24,7,,,,,,,,,9.833,4.080,8.947*34
$GPGGA,091256.44,3828.3542,N,10617.3647,E,1,4,4.079,1106.543,M,-39.359,M,0,0*41
$GPRMC,091256.44,A,3828.3542,N,10617.3647,E,0.000,197.751,160711,0,W,A*3A
$GPVTG,197.751,T,197.751,M,0.000,N,0.000,K,A*23
$GPGSA,A,3,8,11,24,7,,,,,,,,,9.838,4.079,8.953*3C
$GPGGA,091257.44,3828.3542,N,10617.3647,E,1,4,4.079,1106.543,M,-39.359,M,0,0*40
$GPRMC,091257.44,A,3828.3542,N,10617.3647,E,0.000,197.751,160711,0,W,A*3B
$GPVTG,197.751,T,197.751,M,0.000,N,0.000,K,A*23
$GPGSA,A,3,8,11,24,7,,,,,,,,,9.843,4.079,8.958*3B
$GPGSV,3,1,10,3,10,61,23,7,68,201,26,8,67,291,31,11,65,125,24*72
$GPGSV,3,2,10,13,2,197,23,17,11,241,23,26,13,310,24,24,47,145,29*4B
$GPGSV,3,3,10,19,38,48,0,28,34,302,0*4B
$GPGGA,091258.44,3828.3542,N,10617.3647,E,1,4,4.078,1106.543,M,-39.359,M,0,0*4E
$GPRMC,091258.44,A,3828.3542,N,10617.3647,E,0.000,197.751,160711,0,W,A*34
$GPVTG,197.751,T,197.751,M,0.000,N,0.000,K,A*23
$GPGSA,A,3,8,11,24,7,,,,,,,,,9.848,4.078,8.964*3E
$GPGGA,091259.44,3828.3542,N,10617.3647,E,1,4,4.077,1106.543,M,-39.359,M,0,0*40
$GPRMC,091259.44,A,3828.3542,N,10617.3647,E,0.000,197.751,160711,0,W,A*35
$GPVTG,197.751,T,197.751,M,0.000,N,0.000,K,A*23
$GPGSA,A,3,8,11,24,7,,,,,,,,,9.853,4.077,8.970*3E
$GPGGA,091300.44,3828.3542,N,10617.3647,E,1,4,4.076,1106.543,M,-39.359,M,0,0*4C
$GPRMC,091300.44,A,3828.3542,N,10617.3647,E,0.000,197.751,160711,0,W,A*38
$GPVTG,197.751,T,197.751,M,0.000,N,0.000,K,A*23
$GPGSA,A,3,8,11,24,7,,,,,,,,,9.858,4.076,8.976*32
$GPGGA,091301.44,3828.3542,N,10617.3647,E,1,4,4.075,1106.543,M,-39.359,M,0,0*4E
$GPRMC,091301.44,A,3828.3542,N,10617.3647,E,0.000,197.751,160711,0,W,A*39
$GPVTG,197.751,T,197.751,M,0.000,N,0.000,K,A*23
$GPGSA,A,3,8,11,24,7,,,,,,,,,9.863,4.075,8.981*31
$GPGGA,091302.44,3828.3542,N,10617.3647,E,1,4,4.074,1106.543,M,-39.359,M,0,0*4C
$GPRMC,091302.44,A,3828.3542,N,10617.3647,E,0.000,197.751,160711,0,W,A*3A
$GPVTG,197.751,T,197.751,M,0.000,N,0.000,K,A*23
$GPGSA,A,3,8,11,24,7,,,,,,,,,9.867,4.074,8.987*32
$GPGSV,3,1,10,3,10,61,22,7,68,201,27,8,67,291,30,11,65,125,23*74
$GPGSV,3,2,10,13,2,197,25,17,11,241,26,28,34,302,23,24,47,145,28*46
$GPGSV,3,3,10,26,13,310,23,19,38,48,0*72
$GPGGA,091303.44,3828.3542,N,10617.3647,E,1,4,4.074,1106.543,M,-39.359,M,0,0*4D
$GPRMC,091303.44,A,3828.3542,N,10617.3647,E,0.000,197.751,160711,0,W,A*3B
$GPVTG,197.751,T,197.751,M,0.000,N,0.000,K,A*23
$GPGSA,A,3,8,11,24,7,,,,,,,,,9.872,4.074,8.993*33
$GPGGA,091304.44,3828.3542,N,10617.3647,E,1,4,4.073,1106.543,M,-39.359,M,0,0*4D
$GPRMC,091304.44,A,3828.3542,N,10617.3647,E,0.000,197.751,160711,0,W,A*3C
$GPVTG,197.751,T,197.751,M,0.000,N,0.000,K,A*23
$GPGSA,A,3,8,11,24,7,,,,,,,,,9.877,4.073,8.999*3B
$GPGGA,091305.44,3828.3542,N,10617.3647,E,1,3,6.255,1106.543,M,-39.359,M,0,0*4F
$GPRMC,091305.44,A,3828.3542,N,10617.3647,E,0.000,197.751,160711,0,W,A*3D
$GPVTG,197.751,T,197.751,M,0.000,N,0.000,K,A*23
$GPGSA,A,2,8,24,7,,,,,,,,,,6.327,6.255,0.952*30
$GPGGA,091306.44,3828.3546,N,10617.3652,E,1,4,4.071,1106.590,M,-39.359,M,0,0*43
$GPRMC,091306.44,A,3828.3546,N,10617.3652,E,0.584,197.751,160711,0,W,A*37
$GPVTG,197.751,T,197.751,M,0.584,N,1.082,K,A*21
$GPGSA,A,3,8,11,24,7,,,,,,,,,9.887,4.071,9.010*3F
$GPGGA,091307.44,3828.3552,N,10617.3655,E,1,4,4.070,1106.841,M,-39.359,M,0,0*40
$GPRMC,091307.44,A,3828.3552,N,10617.3655,E,1.096,197.751,160711,0,W,A*33
$GPVTG,197.751,T,197.751,M,1.096,N,2.030,K,A*2C
$GPGSA,A,3,8,11,24,7,,,,,,,,,9.892,4.070,9.016*3C
$GPGSV,3,1,10,3,10,61,23,7,68,201,28,8,67,291,30,11,65,125,21*78
$GPGSV,3,2,10,13,2,197,23,17,11,241,22,28,34,302,23,24,47,145,28*44
$GPGSV,3,3,10,26,13,310,24,19,38,48,0*75
$GPGGA,091308.44,3828.3552,N,10617.3655,E,1,4,4.070,1106.841,M,-39.359,M,0,0*4F
$GPRMC,091308.44,A,3828.3552,N,10617.3655,E,0.000,197.751,160711,0,W,A*32
$GPVTG,197.751,T,197.751,M,0.000,N,0.000,K,A*23
$GPGSA,A,3,8,11,24,7,,,,,,,,,9.897,4.070,9.022*3E
$GPGGA,091309.44,3828.3552,N,10617.3655,E,1,4,4.069,1106.841,M,-39.359,M,0,0*46
$GPRMC,091309.44,A,3828.3552,N,10617.3655,E,0.000,197.751,160711,0,W,A*33
$GPVTG,197.751,T,197.751,M,0.000,N,0.000,K,A*23
$GPGSA,A,3,8,11,24,7,,,,,,,,,9.902,4.069,9.027*3E
$GPGGA,091310.44,3828.3552,N,10617.3655,E,1,5,3.646,1106.841,M,-39.359,M,0,0*43
$GPRMC,091310.44,A,3828.3552,N,10617.3655,E,0.000,197.751,160711,0,W,A*3B
$GPVTG,197.751,T,197.751,M,0.000,N,0.000,K,A*23
$GPGSA,A,3,8,11,24,7,26,,,,,,,,4.347,3.646,2.367*3C
$GPGGA,091311.44,3828.3552,N,10617.3655,E,1,5,3.644,1106.841,M,-39.359,M,0,0*40
$GPRMC,091311.44,A,3828.3552,N,10617.3655,E,0.000,197.751,160711,0,W,A*3A
$GPVTG,197.751,T,197.751,M,0.000,N,0.000,K,A*23
$GPGSA,A,3,8,11,24,7,26,,,,,,,,4.346,3.644,2.367*3F
$GPGGA,091312.44,3828.3552,N,10617.3655,E,1,4,4.066,1106.841,M,-39.359,M,0,0*43
$GPRMC,091312.44,A,3828.3552,N,10617.3655,E,0.000,197.751,160711,0,W,A*39
$GPVTG,197.751,T,197.751,M,0.000,N,0.000,K,A*23
$GPGSA,A,3,8,11,24,7,,,,,,,,,9.917,4.066,9.045*31
$GPGSV,3,1,10,3,10,61,23,7,68,201,30,8,67,291,32,11,65,125,24*76
$GPGSV,3,2,10,13,2,197,23,17,11,241,26,26,13,310,24,24,47,144,31*46
$GPGSV,3,3,10,19,38,48,0,28,34,302,0*4B
$GPGGA,091313.44,3828.3552,N,10617.3655,E,1,5,3.642,1106.841,M,-39.359,M,0,0*44
$GPRMC,091313.44,A,3828.3552,N,10617.3655,E,0.000,197.751,160711,0,W,A*38
$GPVTG,197.751,T,197.751,M,0.000,N,0.000,K,A*23
$GPGSA,A,3,8,11,24,7,26,,,,,,,,4.344,3.642,2.368*34
$GPGGA,091314.44,3828.3552,N,10617.3655,E,1,5,3.640,1106.841,M,-39.359,M,0,0*41
$GPRMC,091314.44,A,3828.3552,N,10617.3655,E,0.000,197.751,160711,0,W,A*3F
$GPVTG,197.751,T,197.751,M,0.000,N,0.000,K,A*23
$GPGSA,A,3,8,11,24,7,26,,,,,,,,4.343,3.640,2.368*31
$GPGGA,091315.44,3828.3552,N,10617.3655,E,1,5,3.639,1106.841,M,-39.359,M,0,0*4E
$GPRMC,091315.44,A,3828.3552,N,10617.3655,E,0.000,197.751,160711,0,W,A*3E
$GPVTG,197.751,T,197.751,M,0.000,N,0.000,K,A*23
$GPGSA,A,3,8,11,24,7,26,,,,,,,,4.342,3.639,2.369*3F
$GPGGA,091316.44,3828.3552,N,10617.3655,E,1,4,4.063,1106.841,M,-39.359,M,0,0*42
$GPRMC,091316.44,A,3828.3552,N,10617.3655,E,0.000,197.751,160711,0,W,A*3D
$GPVTG,197.751,T,197.751,M,0.000,N,0.000,K,A*23
$GPGSA,A,3,8,11,24,7,,,,,,,,,9.937,4.063,9.068*39
$GPGGA,091317.44,3828.3552,N,10617.3655,E,1,4,4.063,1106.841,M,-39.359,M,0,0*43
$GPRMC,091317.44,A,3828.3552,N,10617.3655,E,0.000,197.751,160711,0,W,A*3C
$GPVTG,197.751,T,197.751,M,0.000,N,0.000,K,A*23
$GPGSA,A,3,8,11,24,7,,,,,,,,,9.942,4.063,9.074*36
$GPGSV,3,1,10,3,10,61,23,7,68,201,31,8,67,291,35,11,65,125,25*71
$GPGSV,3,2,10,13,2,197,25,17,11,241,25,19,38,48,25,24,47,144,31*79
$GPGSV,3,3,10,26,13,310,0,28,34,302,0*70
$GPGGA,091318.44,3828.3546,N,10617.3652,E,1,4,4.062,1106.677,M,-39.359,M,0,0*44
$GPRMC,091318.44,A,3828.3546,N,10617.3652,E,3.236,194.537,160711,0,W,A*34
$GPVTG,194.537,T,194.537,M,3.236,N,5.993,K,A*21
$GPGSA,A,3,8,11,24,7,,,,,,,,,9.947,4.062,9.080*39
$GPGGA,091319.44,3828.3529,N,10617.3648,E,1,4,4.061,1106.535,M,-39.359,M,0,0*41
$GPRMC,091319.44,A,3828.3529,N,10617.3648,E,5.524,190.340,160711,0,W,A*37
$GPVTG,190.340,T,190.340,M,5.524,N,10.231,K,A*14
$GPGSA,A,3,8,11,24,7,,,,,,,,,9.952,4.061,9.086*38
$GPGGA,091320.44,3828.3513,N,10617.3647,E,1,4,4.060,1106.609,M,-39.359,M,0,0*40
$GPRMC,091320.44,A,3828.3513,N,10617.3647,E,5.770,185.049,160711,0,W,A*36
$GPVTG,185.049,T,185.049,M,5.770,N,10.686,K,A*1F
$GPGSA,A,3,8,11,24,7,,,,,,,,,9.957,4.060,9.092*39
$GPGGA,091321.44,3828.3498,N,10617.3645,E,1,4,4.060,1106.724,M,-39.359,M,0,0*4F
$GPRMC,091321.44,A,3828.3498,N,10617.3645,E,6.884,187.012,160711,0,W,A*3C
$GPVTG,187.012,T,187.012,M,6.884,N,12.749,K,A*18
$GPGSA,A,3,8,11,24,7,,,,,,,,,9.962,4.060,9.098*35
$GPGGA,091322.44,3828.3479,N,10617.3642,E,1,4,4.059,1106.896,M,-39.359,M,0,0*48
$GPRMC,091322.44,A,3828.3479,N,10617.3642,E,8.213,193.209,160711,0,W,A*30
$GPVTG,193.209,T,193.209,M,8.213,N,15.211,K,A*1D
$GPGSA,A,3,8,11,24,7,,,,,,,,,9.967,4.059,9.103*39
$GPGSV,3,1,10,3,10,61,23,7,68,201,33,8,67,291,34,11,65,124,24*72
$GPGSV,3,2,10,26,13,310,20,17,11,241,29,19,38,48,23,24,47,144,32*4E
$GPGSV,3,3,10,13,2,197,0,28,34,302,0*4B
$GPGGA,091323.44,3828.3459,N,10617.3636,E,1,5,3.617,1106.728,M,-39.359,M,0,0*48
$GPRMC,091323.44,A,3828.3459,N,10617.3636,E,8.126,188.933,160711,0,W,A*3D
$GPVTG,188.933,T,188.933,M,8.126,N,15.050,K,A*1F
$GPGSA,A,3,8,11,24,7,28,,,,,,,,5.057,3.617,3.535*35
$GPGGA,091324.44,3828.3434,N,10617.3629,E,1,5,3.615,1107.073,M,-39.359,M,0,0*40
$GPRMC,091324.44,A,3828.3434,N,10617.3629,E,9.050,187.965,160711,0,W,A*32
$GPVTG,187.965,T,187.965,M,9.050,N,16.760,K,A*19
$GPGSA,A,3,8,11,24,7,28,,,,,,,,5.057,3.615,3.536*34
$GPGGA,091325.44,3828.3405,N,10617.3622,E,1,6,3.594,1106.845,M,-39.359,M,0,0*4D
$GPRMC,091325.44,A,3828.3405,N,10617.3622,E,9.340,190.590,160711,0,W,A*38
$GPVTG,190.590,T,190.590,M,9.340,N,17.297,K,A*17
$GPGSA,A,3,8,11,24,7,28,26,,,,,,,4.300,3.594,2.361*3F
$GPGGA,091326.44,3828.3376,N,10617.3612,E,1,6,3.592,1106.344,M,-39.359,M,0,0*42
$GPRMC,091326.44,A,3828.3376,N,10617.3612,E,9.229,191.639,160711,0,W,A*34
$GPVTG,191.639,T,191.639,M,9.229,N,17.093,K,A*1F
$GPGSA,A,3,8,11,24,7,28,26,,,,,,,4.299,3.592,2.361*38
$GPGGA,091327.44,3828.3350,N,10617.3599,E,1,6,3.591,1104.483,M,-39.359,M,0,0*4A
$GPRMC,091327.44,A,3828.3350,N,10617.3599,E,8.998,193.485,160711,0,W,A*36
$GPVTG,193.485,T,193.485,M,8.998,N,16.665,K,A*11
$GPGSA,A,3,8,11,24,7,28,26,,,,,,,4.298,3.591,2.361*3A
$GPGSV,3,1,10,3,10,61,31,7,67,201,37,8,67,291,40,11,65,124,28*75
$GPGSV,3,2,10,13,2,197,22,17,11,241,33,19,38,48,26,24,47,144,37*7C
$GPGSV,3,3,10,26,13,310,23,28,34,302,31*73
$GPGGA,091328.44,3828.3324,N,10617.3590,E,1,6,3.590,1106.045,M,-39.359,M,0,0*42
$GPRMC,091328.44,A,3828.3324,N,10617.3590,E,8.440,198.212,160711,0,W,A*38
$GPVTG,198.212,T,198.212,M,8.440,N,15.631,K,A*1B
$GPGSA,A,3,8,11,24,7,28,26,,,,,,,4.297,3.590,2.361*34
$GPGGA,091329.44,3828.3305,N,10617.3580,E,1,6,3.588,1105.240,M,-39.359,M,0,0*4C
$GPRMC,091329.44,A,3828.3305,N,10617.3580,E,4.708,191.966,160711,0,W,A*39
$GPVTG,191.966,T,191.966,M,4.708,N,8.720,K,A*25
$GPGSA,A,3,8,11,24,7,28,26,,,,,,,4.296,3.588,2.362*3F
$GPGGA,091330.44,3828.3293,N,10617.3576,E,1,6,3.587,1104.928,M,-39.359,M,0,0*48
$GPRMC,091330.44,A,3828.3293,N,10617.3576,E,2.854,191.966,160711,0,W,A*36
$GPVTG,191.966,T,191.966,M,2.854,N,5.285,K,A*22
$GPGSA,A,3,8,11,24,7,28,26,,,,,,,4.295,3.587,2.362*33
$GPGGA,091331.44,3828.3293,N,10617.3576,E,1,6,3.586,1104.928,M,-39.359,M,0,0*48
$GPRMC,091331.44,A,3828.3293,N,10617.3576,E,0.000,191.966,160711,0,W,A*3C
$GPVTG,191.966,T,191.966,M,0.000,N,0.000,K,A*23
$GPGSA,A,3,8,11,24,7,28,26,,,,,,,4.294,3.586,2.362*33
$GPGGA,091332.44,3828.3293,N,10617.3576,E,1,6,3.584,1104.928,M,-39.359,M,0,0*49
$GPRMC,091332.44,A,3828.3293,N,10617.3576,E,0.000,191.966,160711,0,W,A*3F
$GPVTG,191.966,T,191.966,M,0.000,N,0.000,K,A*23
$GPGSA,A,3,8,11,24,7,28,26,,,,,,,4.293,3.584,2.362*36
$GPGSV,3,1,10,3,9,61,27,7,67,201,37,8,67,291,38,11,65,124,30*4C
$GPGSV,3,2,10,13,2,197,23,17,11,241,34,19,38,48,27,24,47,144,36*7A
$GPGSV,3,3,10,26,13,310,21,28,34,302,34*74
$GPGGA,091333.44,3828.3293,N,10617.3576,E,1,6,3.583,1104.928,M,-39.359,M,0,0*4F
$GPRMC,091333.44,A,3828.3293,N,10617.3576,E,0.000,191.966,160711,0,W,A*3E
$GPVTG,191.966,T,191.966,M,0.000,N,0.000,K,A*23
$GPGSA,A,3,8,11,24,7,28,26,,,,,,,4.292,3.583,2.363*31
$GPGGA,091334.44,3828.3293,N,10617.3576,E,1,6,3.582,1104.928,M,-39.359,M,0,0*49
$GPRMC,091334.44,A,3828.3293,N,10617.3576,E,0.000,191.966,160711,0,W,A*39
$GPVTG,191.966,T,191.966,M,0.000,N,0.000,K,A*23
$GPGSA,A,3,8,11,24,7,28,26,,,,,,,4.291,3.582,2.363*33
$GPGGA,091335.44,3828.3293,N,10617.3576,E,1,6,3.580,1104.928,M,-39.359,M,0,0*4A
$GPRMC,091335.44,A,3828.3293,N,10617.3576,E,0.000,191.966,160711,0,W,A*38
$GPVTG,191.966,T,191.966,M,0.000,N,0.000,K,A*23
$GPGSA,A,3,8,11,24,7,28,26,,,,,,,4.290,3.580,2.363*30
$GPGGA,091336.44,3828.3293,N,10617.3576,E,1,6,3.579,1104.928,M,-39.359,M,0,0*4F
$GPRMC,091336.44,A,3828.3293,N,10617.3576,E,0.000,191.966,160711,0,W,A*3B
$GPVTG,191.966,T,191.966,M,0.000,N,0.000,K,A*23
$GPGSA,A,3,8,11,24,7,28,26,,,,,,,4.289,3.579,2.363*3E
$GPGGA,091337.44,3828.3293,N,10617.3576,E,1,6,3.578,1104.928,M,-39.359,M,0,0*4F
$GPRMC,091337.44,A,3828.3293,N,10617.3576,E,0.000,191.966,160711,0,W,A*3A
$GPVTG,191.966,T,191.966,M,0.000,N,0.000,K,A*23
$GPGSA,A,3,8,11,24,7,28,26,,,,,,,4.288,3.578,2.364*39
$GPGSV,3,1,10,3,9,61,29,7,67,201,38,8,67,291,39,11,65,124,31*4D
$GPGSV,3,2,10,13,1,197,24,17,11,241,34,19,38,48,27,24,47,144,36*7E
$GPGSV,3,3,10,26,13,309,27,28,34,302,36*78
$GPGGA,091338.44,3828.3293,N,10617.3576,E,1,6,3.576,1104.928,M,-39.359,M,0,0*4E
$GPRMC,091338.44,A,3828.3293,N,10617.3576,E,0.000,191.966,160711,0,W,A*35
$GPVTG,191.966,T,191.966,M,0.000,N,0.000,K,A*23
$GPGSA,A,3,8,11,24,7,28,26,,,,,,,4.287,3.576,2.364*38
$GPGGA,091339.44,3828.3293,N,10617.3576,E,1,6,3.575,1104.928,M,-39.359,M,0,0*4C
$GPRMC,091339.44,A,3828.3293,N,10617.3576,E,0.000,191.966,160711,0,W,A*34
$GPVTG,191.966,T,191.966,M,0.000,N,0.000,K,A*23
$GPGSA,A,3,8,11,24,7,28,26,,,,,,,4.286,3.575,2.364*3A
$GPGGA,091340.44,3828.3293,N,10617.3576,E,1,6,3.573,1104.928,M,-39.359,M,0,0*44
$GPRMC,091340.44,A,3828.3293,N,10617.3576,E,0.000,191.966,160711,0,W,A*3A
$GPVTG,191.966,T,191.966,M,0.000,N,0.000,K,A*23
$GPGSA,A,3,8,11,24,7,28,26,,,,,,,4.285,3.573,2.364*3F
$GPGGA,091341.44,3828.3293,N,10617.3576,E,1,6,3.572,1104.928,M,-39.359,M,0,0*44
$GPRMC,091341.44,A,3828.3293,N,10617.3576,E,0.000,191.966,160711,0,W,A*3B
$GPVTG,191.966,T,191.966,M,0.000,N,0.000,K,A*23
$GPGSA,A,3,8,11,24,7,28,26,,,,,,,4.284,3.572,2.365*3E
$GPGGA,091342.44,3828.3293,N,10617.3576,E,1,6,3.571,1104.928,M,-39.359,M,0,0*44
$GPRMC,091342.44,A,3828.3293,N,10617.3576,E,0.000,191.966,160711,0,W,A*38
$GPVTG,191.966,T,191.966,M,0.000,N,0.000,K,A*23
$GPGSA,A,3,8,11,24,7,28,26,,,,,,,4.283,3.571,2.365*3A
$GPGSV,3,1,10,3,9,61,26,7,67,201,37,8,67,291,38,11,65,124,30*4D
$GPGSV,3,2,10,13,1,197,25,17,11,241,33,19,38,48,28,24,47,144,34*75
$GPGSV,3,3,10,26,13,309,22,28,34,303,33*79
$GPGGA,091343.44,3828.3293,N,10617.3576,E,1,6,3.569,1104.928,M,-39.359,M,0,0*4C
$GPRMC,091343.44,A,3828.3293,N,10617.3576,E,0.000,191.966,160711,0,W,A*39
$GPVTG,191.966,T,191.966,M,0.000,N,0.000,K,A*23
$GPGSA,A,3,8,11,24,7,28,26,,,,,,,4.282,3.569,2.365*32
$GPGGA,091344.44,3828.3293,N,10617.3576,E,1,6,3.568,1104.928,M,-39.359,M,0,0*4A
$GPRMC,091344.44,A,3828.3293,N,10617.3576,E,0.000,191.966,160711,0,W,A*3E
$GPVTG,191.966,T,191.966,M,0.000,N,0.000,K,A*23
$GPGSA,A,3,8,11,24,7,28,26,,,,,,,4.281,3.568,2.365*30
$GPGGA,091345.44,3828.3293,N,10617.3576,E,1,6,3.567,1104.928,M,-39.359,M,0,0*44
$GPRMC,091345.44,A,3828.3293,N,10617.3576,E,0.000,191.966,160711,0,W,A*3F
$GPVTG,191.966,T,191.966,M,0.000,N,0.000,K,A*23
$GPGSA,A,3,8,11,24,7,28,26,,,,,,,4.280,3.567,2.366*3D
$GPGGA,091346.44,3828.3293,N,10617.3576,E,1,6,3.565,1104.928,M,-39.359,M,0,0*45
$GPRMC,091346.44,A,3828.3293,N,10617.3576,E,0.000,191.966,160711,0,W,A*3C
$GPVTG,191.966,T,191.966,M,0.000,N,0.000,K,A*23
$GPGSA,A,3,8,11,24,7,28,26,,,,,,,4.279,3.565,2.366*39
$GPGGA,091347.44,3828.3293,N,10617.3576,E,1,6,3.564,1104.928,M,-39.359,M,0,0*45
$GPRMC,091347.44,A,3828.3293,N,10617.3576,E,0.000,191.966,160711,0,W,A*3D
$GPVTG,191.966,T,191.966,M,0.000,N,0.000,K,A*23
$GPGSA,A,3,8,11,24,7,28,26,,,,,,,4.278,3.564,2.366*39
$GPGSV,3,1,10,3,9,61,24,7,67,201,35,8,67,290,37,11,65,124,26*44
$GPGSV,3,2,10,13,1,197,21,17,11,241,29,19,38,48,27,24,47,144,33*72
$GPGSV,3,3,10,26,13,309,20,28,34,303,31*79
$GPGGA,091348.44,3828.3293,N,10617.3576,E,1,6,3.563,1104.928,M,-39.359,M,0,0*4D
$GPRMC,091348.44,A,3828.3293,N,10617.3576,E,0.000,191.966,160711,0,W,A*32
$GPVTG,191.966,T,191.966,M,0.000,N,0.000,K,A*23
$GPGSA,A,3,8,11,24,7,28,26,,,,,,,4.277,3.563,2.366*31
$GPGGA,091349.44,3828.3293,N,10617.3576,E,1,6,3.561,1104.928,M,-39.359,M,0,0*4E
$GPRMC,091349.44,A,3828.3293,N,10617.3576,E,0.000,191.966,160711,0,W,A*33
$GPVTG,191.966,T,191.966,M,0.000,N,0.000,K,A*23
$GPGSA,A,3,8,11,24,7,28,26,,,,,,,4.276,3.561,2.367*33
$GPGGA,091350.44,3828.3293,N,10617.3576,E,1,5,3.575,1104.928,M,-39.359,M,0,0*40
$GPRMC,091350.44,A,3828.3293,N,10617.3576,E,0.000,191.966,160711,0,W,A*3B
$GPVTG,191.966,T,191.966,M,0.000,N,0.000,K,A*23
$GPGSA,A,3,8,11,24,7,28,,,,,,,,5.052,3.575,3.569*3E
$GPGGA,091351.44,3828.3293,N,10617.3576,E,1,6,3.558,1104.928,M,-39.359,M,0,0*4D
$GPRMC,091351.44,A,3828.3293,N,10617.3576,E,0.000,191.966,160711,0,W,A*3A
$GPVTG,191.966,T,191.966,M,0.000,N,0.000,K,A*23
$GPGSA,A,3,8,11,24,7,28,26,,,,,,,4.274,3.558,2.367*3B
$GPGGA,091352.44,3828.3293,N,10617.3576,E,1,6,3.557,1104.928,M,-39.359,M,0,0*41
$GPRMC,091352.44,A,3828.3293,N,10617.3576,E,0.000,191.966,160711,0,W,A*39
$GPVTG,191.966,T,191.966,M,0.000,N,0.000,K,A*23
$GPGSA,A,3,8,11,24,7,28,26,,,,,,,4.273,3.557,2.367*33
$GPGSV,3,1,10,3,9,61,25,7,67,201,37,8,67,290,38,11,65,124,24*4A
$GPGSV,3,2,10,13,1,197,25,17,11,241,32,19,38,48,30,24,47,144,34*7D
$GPGSV,3,3,10,26,13,309,21,28,34,303,35*7C
$GPGGA,091353.44,3828.3293,N,10617.3576,E,1,6,3.556,1104.928,M,-39.359,M,0,0*41
$GPRMC,091353.44,A,3828.3293,N,10617.3576,E,0.000,191.966,160711,0,W,A*38
$GPVTG,191.966,T,191.966,M,0.000,N,0.000,K,A*23
$GPGSA,A,3,8,11,24,7,28,26,,,,,,,4.272,3.556,2.368*3C
$GPGGA,091354.44,3828.3293,N,10617.3576,E,1,5,3.568,1104.928,M,-39.359,M,0,0*48
$GPRMC,091354.44,A,3828.3293,N,10617.3576,E,0.000,191.966,160711,0,W,A*3F
$GPVTG,191.966,T,191.966,M,0.000,N,0.000,K,A*23
$GPGSA,A,3,8,11,24,7,28,,,,,,,,5.051,3.568,3.575*3C
$GPGGA,091355.44,3828.3293,N,10617.3576,E,1,6,3.553,1104.928,M,-39.359,M,0,0*42
$GPRMC,091355.44,A,3828.3293,N,10617.3576,E,0.000,191.966,160711,0,W,A*3E
$GPVTG,191.966,T,191.966,M,0.000,N,0.000,K,A*23
$GPGSA,A,3,8,11,24,7,28,26,,,,,,,4.270,3.553,2.368*3B
$GPGGA,091356.44,3828.3293,N,10617.3576,E,1,6,3.552,1104.928,M,-39.359,M,0,0*40
$GPRMC,091356.44,A,3828.3293,N,10617.3576,E,0.000,191.966,160711,0,W,A*3D
$GPVTG,191.966,T,191.966,M,0.000,N,0.000,K,A*23
$GPGSA,A,3,8,11,24,7,28,26,,,,,,,4.269,3.552,2.368*32
$GPGGA,091357.44,3828.3293,N,10617.3576,E,1,6,3.550,1104.928,M,-39.359,M,0,0*43
$GPRMC,091357.44,A,3828.3293,N,10617.3576,E,0.000,191.966,160711,0,W,A*3C
$GPVTG,191.966,T,191.966,M,0.000,N,0.000,K,A*23
$GPGSA,A,3,8,11,24,7,28,26,,,,,,,4.268,3.550,2.368*31
$GPGSV,3,1,10,3,9,61,29,7,67,201,38,8,67,290,39,11,65,124,27*4B
$GPGSV,3,2,10,13,1,197,23,17,11,241,33,19,38,48,28,24,47,144,33*74
$GPGSV,3,3,10,26,13,309,18,28,34,303,35*76
$GPGGA,091358.44,3828.3293,N,10617.3576,E,1,6,3.549,1104.928,M,-39.359,M,0,0*44
$GPRMC,091358.44,A,3828.3293,N,10617.3576,E,0.000,191.966,160711,0,W,A*33
$GPVTG,191.966,T,191.966,M,0.000,N,0.000,K,A*23
$GPGSA,A,3,8,11,24,7,28,26,,,,,,,4.267,3.549,2.369*37
$GPGGA,091359.44,3828.3293,N,10617.3576,E,1,5,3.561,1104.928,M,-39.359,M,0,0*4C
$GPRMC,091359.44,A,3828.3293,N,10617.3576,E,0.000,191.966,160711,0,W,A*32
$GPVTG,191.966,T,191.966,M,0.000,N,0.000,K,A*23
$GPGSA,A,3,8,11,24,7,28,,,,,,,,5.050,3.561,3.581*3F
$GPGGA,091400.44,3828.3293,N,10617.3576,E,1,6,3.546,1104.928,M,-39.359,M,0,0*41
$GPRMC,091400.44,A,3828.3293,N,10617.3576,E,0.000,191.966,160711,0,W,A*39
$GPVTG,191.966,T,191.966,M,0.000,N,0.000,K,A*23
$GPGSA,A,3,8,11,24,7,28,26,,,,,,,4.265,3.546,2.369*3A
$GPGGA,091401.44,3828.3293,N,10617.3576,E,1,6,3.545,1104.928,M,-39.359,M,0,0*43
$GPRMC,091401.44,A,3828.3293,N,10617.3576,E,0.000,191.966,160711,0,W,A*38
$GPVTG,191.966,T,191.966,M,0.000,N,0.000,K,A*23
$GPGSA,A,3,8,11,24,7,28,26,,,,,,,4.264,3.545,2.369*38
$GPGGA,091402.44,3828.3293,N,10617.3576,E,1,6,3.543,1104.928,M,-39.359,M,0,0*46
$GPRMC,091402.44,A,3828.3293,N,10617.3576,E,0.000,191.966,160711,0,W,A*3B
$GPVTG,191.966,T,191.966,M,0.000,N,0.000,K,A*23
$GPGSA,A,3,8,11,24,7,28,26,,,,,,,4.263,3.543,2.370*31
$GPGSV,3,1,10,3,9,61,31,7,67,200,37,8,67,290,39,11,65,124,29*42
$GPGSV,3,2,10,13,1,197,23,17,11,241,34,19,38,48,28,24,48,144,33*7C
$GPGSV,3,3,10,26,13,309,18,28,34,303,34*77
$GPGGA,091403.44,3828.3293,N,10617.3576,E,1,6,3.542,1104.928,M,-39.359,M,0,0*46
$GPRMC,091403.44,A,3828.3293,N,10617.3576,E,0.000,191.966,160711,0,W,A*3A
$GPVTG,191.966,T,191.966,M,0.000,N,0.000,K,A*23
$GPGSA,A,3,8,11,24,7,28,26,,,,,,,4.262,3.542,2.370*31
$GPGGA,091404.44,3828.3293,N,10617.3576,E,1,6,3.541,1104.928,M,-39.359,M,0,0*42
$GPRMC,091404.44,A,3828.3293,N,10617.3576,E,0.000,191.966,160711,0,W,A*3D
$GPVTG,191.966,T,191.966,M,0.000,N,0.000,K,A*23
$GPGSA,A,3,8,11,24,7,28,26,,,,,,,4.261,3.541,2.370*31
$GPGGA,091405.44,3828.3293,N,10617.3576,E,1,6,3.539,1104.928,M,-39.359,M,0,0*4C
$GPRMC,091405.44,A,3828.3293,N,10617.3576,E,0.000,191.966,160711,0,W,A*3C
$GPVTG,191.966,T,191.966,M,0.000,N,0.000,K,A*23
$GPGSA,A,3,8,11,24,7,28,26,,,,,,,4.260,3.539,2.370*3F
$GPGGA,091406.44,3828.3293,N,10617.3576,E,1,6,3.538,1104.928,M,-39.359,M,0,0*4E
$GPRMC,091406.44,A,3828.3293,N,10617.3576,E,0.000,191.966,160711,0,W,A*3F
$GPVTG,191.966,T,191.966,M,0.000,N,0.000,K,A*23
$GPGSA,A,3,8,11,24,7,28,26,,,,,,,4.259,3.538,2.371*35
$GPGGA,091407.44,3828.3293,N,10617.3576,E,1,6,3.536,1104.928,M,-39.359,M,0,0*41
$GPRMC,091407.44,A,3828.3293,N,10617.3576,E,0.000,191.966,160711,0,W,A*3E