$GPRMC,,V,,,,,,,,,,N*53
$GPRMC,,V,,,,,,,,,,N*53
$GPRMC,000039.00,V,,,,,,,,,,N*77
$GPRMC,000040.00,V,,,,,,,,,,N*79
$GPRMC,000041.00,V,,,,,,,,,,N*78
$GPRMC,000042.00,V,,,,,,,,,,N*7B
$GPRMC,000043.00,V,,,,,,,,,,N*7A
$GPRMC,000044.00,V,,,,,,,,,,N*7D
$GPRMC,000045.00,V,,,,,,,,,,N*7C
$GPRMC,000046.00,V,,,,,,,071217,,,N*7D
$GPRMC,000047.00,V,,,,,,,071217,,,N*7C
$GPRMC,000048.00,V,,,,,,,071217,,,N*73
$GPRMC,000049.00,V,,,,,,,071217,,,N*72
$GPRMC,000050.00,V,,,,,,,071217,,,N*7A
$GPRMC,000051.00,V,,,,,,,071217,,,N*7B
$GPRMC,000052.00,V,,,,,,,071217,,,N*78
$GPRMC,000053.00,V,,,,,,,071217,,,N*79
$GPRMC,000054.00,V,,,,,,,071217,,,N*7E
$GPRMC,000055.00,V,,,,,,,071217,,,N*7F
$GPRMC,000056.00,V,,,,,,,071217,,,N*7C
$GPRMC,000057.00,V,,,,,,,071217,,,N*7D
$GPRMC,000058.00,V,,,,,,,071217,,,N*72
$GPRMC,000059.00,V,,,,,,,071217,,,N*73
$GPRMC,000100.00,V,,,,,,,071217,,,N*7E
$GPRMC,000101.00,V,,,,,,,071217,,,N*7F
$GPRMC,000102.00,V,,,,,,,071217,,,N*7C
$GPRMC,000103.00,V,,,,,,,071217,,,N*7D
$GPRMC,000104.00,V,,,,,,,071217,,,N*7A
$GPRMC,000105.00,V,,,,,,,071217,,,N*7B
$GPRMC,000106.00,V,,,,,,,071217,,,N*78
$GPRMC,000107.00,V,,,,,,,071217,,,N*79
$GPRMC,000108.00,V,,,,,,,071217,,,N*76
$GPRMC,000109.00,V,,,,,,,071217,,,N*77
$GPRMC,000110.00,V,,,,,,,071217,,,N*7F
$GPRMC,000111.00,V,,,,,,,071217,,,N*7E
$GPRMC,000112.00,V,,,,,,,071217,,,N*7D
$GPRMC,000113.00,V,,,,,,,071217,,,N*7C
$GPRMC,000114.00,V,,,,,,,071217,,,N*7B
$GPRMC,000115.00,V,,,,,,,071217,,,N*7A
$GPRMC,000116.00,V,,,,,,,071217,,,N*79
$GPRMC,000117.00,V,,,,,,,071217,,,N*78
$GPRMC,000118.00,V,,,,,,,071217,,,N*77
$GPRMC,000119.00,V,,,,,,,071217,,,N*76
$GPRMC,000120.00,V,,,,,,,071217,,,N*7C
$GPRMC,000121.00,V,,,,,,,071217,,,N*7D
$GPRMC,000122.00,V,,,,,,,071217,,,N*7E
$GPRMC,000123.00,V,,,,,,,071217,,,N*7F
$GPRMC,000124.00,V,,,,,,,071217,,,N*78
$GPRMC,000125.00,V,,,,,,,071217,,,N*79
$GPRMC,000126.00,V,,,,,,,071217,,,N*7A
$GPRMC,000127.00,V,,,,,,,071217,,,N*7B
$GPRMC,000128.00,V,,,,,,,071217,,,N*74
$GPRMC,000129.00,V,,,,,,,071217,,,N*75
$GPRMC,000130.00,V,,,,,,,071217,,,N*7D
$GPRMC,000131.00,V,,,,,,,071217,,,N*7C
$GPRMC,000132.00,V,,,,,,,071217,,,N*7F
$GPRMC,000133.00,A,2257.93604,N,11354.55771,E,2.800,,071217,,,A*70
$GPRMC,000134.00,A,2257.93517,N,11354.55766,E,3.129,121.06,071217,,,A*69
$GPRMC,000135.00,A,2257.93399,N,11354.55734,E,4.750,176.04,071217,,,A*60
$GPRMC,000136.00,A,2257.93252,N,11354.55690,E,5.953,186.46,071217,,,A*6F
$GPRMC,000137.00,A,2257.93036,N,11354.55636,E,8.643,190.85,071217,,,A*69
$GPRMC,000138.00,A,2257.92818,N,11354.55411,E,11.226,209.24,071217,,,A*53
$GPRMC,000139.00,A,2257.92480,N,11354.55149,E,14.532,214.92,071217,,,A*51
$GPRMC,000140.00,A,2257.92139,N,11354.54857,E,16.024,218.46,071217,,,A*5A
$GPRMC,000141.00,A,2257.91719,N,11354.54581,E,17.811,213.09,071217,,,A*55
$GPRMC,000142.00,A,2257.91234,N,11354.54268,E,18.913,212.61,071217,,,A*5F
$GPRMC,000143.00,A,2257.90757,N,11354.53985,E,19.275,210.55,071217,,,A*5F
$GPRMC,000144.00,A,2257.90242,N,11354.53709,E,19.258,208.59,071217,,,A*59
$GPRMC,000145.00,A,2257.89786,N,11354.53431,E,18.669,208.18,071217,,,A*57
$GPRMC,000146.00,A,2257.89342,N,11354.53204,E,17.036,205.17,071217,,,A*59
$GPRMC,000147.00,A,2257.88956,N,11354.53010,E,13.763,206.29,071217,,,A*5C
$GPRMC,000148.00,A,2257.88629,N,11354.52840,E,11.305,207.79,071217,,,A*5A
$GPRMC,000149.00,A,2257.88363,N,11354.52650,E,9.303,214.92,071217,,,A*67
$GPRMC,000150.00,A,2257.88197,N,11354.52505,E,7.839,221.14,071217,,,A*61
$GPRMC,000151.00,A,2257.88109,N,11354.52318,E,7.699,238.83,071217,,,A*6F
$GPRMC,000152.00,A,2257.88061,N,11354.52107,E,8.077,260.63,071217,,,A*65
$GPRMC,000153.00,A,2257.88076,N,11354.51880,E,7.572,272.17,071217,,,A*68
$GPRMC,000154.00,A,2257.88186,N,11354.51653,E,9.183,288.33,071217,,,A*66
$GPRMC,000155.00,A,2257.88338,N,11354.51412,E,11.830,304.74,071217,,,A*59
$GPRMC,000156.00,A,2257.88530,N,11354.51149,E,11.504,306.83,071217,,,A*5F
$GPRMC,000157.00,A,2257.88753,N,11354.50843,E,12.731,307.64,071217,,,A*54
$GPRMC,000158.00,A,2257.89004,N,11354.50531,E,13.523,308.57,071217,,,A*58
$GPRMC,000159.00,A,2257.89264,N,11354.50189,E,14.448,307.84,071217,,,A*50
$GPRMC,000200.00,A,2257.89641,N,11354.49725,E,17.385,308.32,071217,,,A*53
$GPRMC,000201.00,A,2257.90026,N,11354.49255,E,18.844,310.39,071217,,,A*54
$GPRMC,000202.00,A,2257.90323,N,11354.48832,E,18.259,309.58,071217,,,A*52
$GPRMC,000203.00,A,2257.90688,N,11354.48370,E,19.065,309.38,071217,,,A*50
$GPRMC,000204.00,A,2257.91039,N,11354.47944,E,19.140,309.56,071217,,,A*56
$GPRMC,000205.00,A,2257.91374,N,11354.47488,E,19.236,308.92,071217,,,A*5B
$GPRMC,000206.00,A,2257.91778,N,11354.47041,E,20.172,310.33,071217,,,A*5A
$GPRMC,000207.00,A,2257.92162,N,11354.46527,E,21.490,309.07,071217,,,A*56
$GPRMC,000208.00,A,2257.92570,N,11354.45944,E,23.234,308.45,071217,,,A*59
$GPRMC,000209.00,A,2257.92952,N,11354.45398,E,22.471,308.62,071217,,,A*5C
$GPRMC,000210.00,A,2257.93321,N,11354.44895,E,21.498,309.03,071217,,,A*5E
$GPRMC,000211.00,A,2257.93677,N,11354.44432,E,20.098,309.70,071217,,,A*59
$GPRMC,000212.00,A,2257.94035,N,11354.43993,E,19.174,310.54,071217,,,A*5B
$GPRMC,000213.00,A,2257.94366,N,11354.43567,E,18.512,309.55,071217,,,A*54
$GPRMC,000214.00,A,2257.94682,N,11354.43116,E,18.907,307.03,071217,,,A*5B
$GPRMC,000215.00,A,2257.95002,N,11354.42647,E,19.302,306.44,071217,,,A*5B
$GPRMC,000216.00,A,2257.95322,N,11354.42199,E,18.519,307.94,071217,,,A*5C
$GPRMC,000217.00,A,2257.95618,N,11354.41791,E,17.265,308.93,071217,,,A*57
$GPRMC,000218.00,A,2257.95920,N,11354.41413,E,16.743,311.18,071217,,,A*5E
$GPRMC,000219.00,A,2257.96169,N,11354.41106,E,14.208,311.87,071217,,,A*56
$GPRMC,000220.00,A,2257.96380,N,11354.40825,E,12.143,311.38,071217,,,A*5E
$GPRMC,000221.00,A,2257.96575,N,11354.40587,E,10.500,311.80,071217,,,A*54
$GPRMC,000222.00,A,2257.96710,N,11354.40417,E,7.825,311.98,071217,,,A*6B
$GPRMC,000223.00,A,2257.96819,N,11354.40292,E,5.607,312.31,071217,,,A*6B
$GPRMC,000224.00,A,2257.96904,N,11354.40201,E,4.107,312.43,071217,,,A*68
$GPRMC,000225.00,A,2257.96962,N,11354.40136,E,3.006,312.01,071217,,,A*6F
$GPRMC,000226.00,A,2257.97005,N,11354.40085,E,2.298,312.87,071217,,,A*66
$GPRMC,000227.00,A,2257.97036,N,11354.40042,E,1.940,311.33,071217,,,A*6D
$GPRMC,000228.00,A,2257.97078,N,11354.39995,E,2.070,312.44,071217,,,A*6F
$GPRMC,000229.00,A,2257.97108,N,11354.39959,E,1.452,313.27,071217,,,A*6B
$GPRMC,000230.00,A,2257.97109,N,11354.39953,E,0.201,,071217,,,A*73
$GPRMC,000231.00,A,2257.97108,N,11354.39951,E,0.048,,071217,,,A*7E
$GPRMC,000232.00,A,2257.97111,N,11354.39949,E,0.093,,071217,,,A*7A
$GPRMC,000233.00,A,2257.97111,N,11354.39945,E,0.062,,071217,,,A*79
$GPRMC,000234.00,A,2257.97114,N,11354.39946,E,0.031,,071217,,,A*7E
$GPRMC,000235.00,A,2257.97117,N,11354.39949,E,0.108,,071217,,,A*78
$GPRMC,000236.00,A,2257.97121,N,11354.39950,E,0.030,,071217,,,A*7C
$GPRMC,000237.00,A,2257.97125,N,11354.39953,E,0.107,,071217,,,A*7F
$GPRMC,000238.00,A,2257.97127,N,11354.39956,E,0.042,,071217,,,A*77
$GPRMC,000239.00,A,2257.97128,N,11354.39960,E,0.042,,071217,,,A*7C
$GPRMC,000240.00,A,2257.97126,N,11354.39961,E,0.138,,071217,,,A*71
$GPRMC,000241.00,A,2257.97122,N,11354.39962,E,0.113,,071217,,,A*7E
$GPRMC,000242.00,A,2257.97124,N,11354.39964,E,0.027,,071217,,,A*7B
$GPRMC,000243.00,A,2257.97124,N,11354.39965,E,0.017,,071217,,,A*78
$GPRMC,000244.00,A,2257.97123,N,11354.39968,E,0.054,,071217,,,A*72
$GPRMC,000245.00,A,2257.97122,N,11354.39971,E,0.014,,071217,,,A*7E
$GPRMC,000246.00,A,2257.97120,N,11354.39973,E,0.128,,071217,,,A*73
$GPRMC,000247.00,A,2257.97117,N,11354.39975,E,0.060,,071217,,,A*7D
$GPRMC,000248.00,A,2257.97114,N,11354.39977,E,0.009,,071217,,,A*7C
$GPRMC,000249.00,A,2257.97113,N,11354.39977,E,0.053,,071217,,,A*75
$GPRMC,000250.00,A,2257.97112,N,11354.39978,E,0.131,,071217,,,A*76
$GPRMC,000251.00,A,2257.97107,N,11354.39979,E,0.050,,071217,,,A*74
$GPRMC,000252.00,A,2257.97111,N,11354.39972,E,0.452,,071217,,,A*7D
$GPRMC,000253.00,A,2257.97139,N,11354.39944,E,1.529,312.11,071217,,,A*61
$GPRMC,000254.00,A,2257.97202,N,11354.39868,E,3.624,309.28,071217,,,A*6E
$GPRMC,000255.00,A,2257.97311,N,11354.39729,E,6.117,308.84,071217,,,A*63
$GPRMC,000256.00,A,2257.97467,N,11354.39537,E,8.650,309.39,071217,,,A*66
$GPRMC,000257.00,A,2257.97661,N,11354.39304,E,10.604,310.29,071217,,,A*54
$GPRMC,000258.00,A,2257.97878,N,11354.39046,E,11.647,311.23,071217,,,A*55
$GPRMC,000259.00,A,2257.98137,N,11354.38744,E,13.705,311.53,071217,,,A*5F
$GPRMC,000300.00,A,2257.98390,N,11354.38436,E,13.619,311.56,071217,,,A*52
$GPRMC,000301.00,A,2257.98633,N,11354.38122,E,13.552,310.48,071217,,,A*5D
$GPRMC,000302.00,A,2257.98912,N,11354.37792,E,14.768,311.22,071217,,,A*51
$GPRMC,000303.00,A,2257.99172,N,11354.37468,E,14.104,311.57,071217,,,A*57
$GPRMC,000304.00,A,2257.99427,N,11354.37160,E,13.504,311.93,071217,,,A*53
$GPRMC,000305.00,A,2257.99670,N,11354.36852,E,13.405,310.82,071217,,,A*5A
$GPRMC,000306.00,A,2257.99839,N,11354.36560,E,11.325,305.77,071217,,,A*5F
$GPRMC,000307.00,A,2257.99969,N,11354.36287,E,10.043,299.79,071217,,,A*5C
$GPRMC,000308.00,A,2258.00050,N,11354.35996,E,10.038,290.83,071217,,,A*57
$GPRMC,000309.00,A,2258.00060,N,11354.35680,E,10.435,277.25,071217,,,A*51
$GPRMC,000310.00,A,2257.99948,N,11354.35346,E,11.114,254.58,071217,,,A*56
$GPRMC,000311.00,A,2257.99726,N,11354.35085,E,11.341,230.15,071217,,,A*54
$GPRMC,000312.00,A,2257.99459,N,11354.34823,E,13.147,222.28,071217,,,A*52
$GPRMC,000313.00,A,2257.99126,N,11354.34518,E,15.785,220.84,071217,,,A*51
$GPRMC,000314.00,A,2257.98757,N,11354.34183,E,17.147,219.62,071217,,,A*59
$GPRMC,000315.00,A,2257.98400,N,11354.33852,E,16.826,220.51,071217,,,A*5E
$GPRMC,000316.00,A,2257.98057,N,11354.33527,E,16.326,221.18,071217,,,A*53
$GPRMC,000317.00,A,2257.97725,N,11354.33209,E,15.922,221.42,071217,,,A*56
$GPRMC,000318.00,A,2257.97374,N,11354.32886,E,16.655,220.31,071217,,,A*5C
$GPRMC,000319.00,A,2257.97000,N,11354.32551,E,17.401,219.56,071217,,,A*53
$GPRMC,000320.00,A,2257.96614,N,11354.32197,E,18.208,220.39,071217,,,A*56
$GPRMC,000321.00,A,2257.96233,N,11354.31821,E,18.648,222.02,071217,,,A*5B
$GPRMC,000322.00,A,2257.95863,N,11354.31458,E,17.822,221.70,071217,,,A*5D
$GPRMC,000323.00,A,2257.95520,N,11354.31116,E,16.636,221.96,071217,,,A*5B
$GPRMC,000324.00,A,2257.95202,N,11354.30800,E,15.549,221.67,071217,,,A*52
$GPRMC,000325.00,A,2257.94898,N,11354.30501,E,14.694,221.57,071217,,,A*56
$GPRMC,000326.00,A,2257.94582,N,11354.30211,E,14.875,220.28,071217,,,A*5D
$GPRMC,000327.00,A,2257.94260,N,11354.29904,E,15.437,220.97,071217,,,A*5F
$GPRMC,000328.00,A,2257.93940,N,11354.29596,E,15.413,221.43,071217,,,A*57
$GPRMC,000329.00,A,2257.93627,N,11354.29296,E,15.015,221.35,071217,,,A*5C
$GPRMC,000330.00,A,2257.93326,N,11354.29005,E,14.559,221.37,071217,,,A*56
$GPRMC,000331.00,A,2257.93020,N,11354.28707,E,14.891,221.69,071217,,,A*54
$GPRMC,000332.00,A,2257.92714,N,11354.28412,E,14.803,221.87,071217,,,A*5A
$GPRMC,000333.00,A,2257.92403,N,11354.28117,E,14.831,221.45,071217,,,A*51
$GPRMC,000334.00,A,2257.92079,N,11354.27810,E,15.469,221.49,071217,,,A*52
$GPRMC,000335.00,A,2257.91744,N,11354.27490,E,16.128,221.59,071217,,,A*5F
$GPRMC,000336.00,A,2257.91415,N,11354.27179,E,15.727,220.95,071217,,,A*52
$GPRMC,000337.00,A,2257.91103,N,11354.26882,E,14.888,220.79,071217,,,A*54
$GPRMC,000338.00,A,2257.90819,N,11354.26602,E,13.790,221.59,071217,,,A*5C
$GPRMC,000339.00,A,2257.90545,N,11354.26339,E,12.832,221.29,071217,,,A*55
$GPRMC,000340.00,A,2257.90283,N,11354.26086,E,12.371,221.42,071217,,,A*50
$GPRMC,000341.00,A,2257.90024,N,11354.25825,E,12.601,221.29,071217,,,A*53
$GPRMC,000342.00,A,2257.89766,N,11354.25574,E,12.541,221.51,071217,,,A*58
$GPRMC,000343.00,A,2257.89488,N,11354.25310,E,13.665,221.20,071217,,,A*5C
$GPRMC,000344.00,A,2257.89182,N,11354.25018,E,14.949,221.22,071217,,,A*5B
$GPRMC,000345.00,A,2257.88843,N,11354.24694,E,16.375,221.40,071217,,,A*5F
$GPRMC,000346.00,A,2257.88494,N,11354.24342,E,17.482,221.69,071217,,,A*51
$GPRMC,000347.00,A,2257.88126,N,11354.23975,E,18.144,222.88,071217,,,A*59
$GPRMC,000348.00,A,2257.87767,N,11354.23614,E,17.460,222.59,071217,,,A*52
$GPRMC,000349.00,A,2257.87406,N,11354.23260,E,17.631,221.62,071217,,,A*5D
$GPRMC,000350.00,A,2257.87032,N,11354.22904,E,17.912,221.17,071217,,,A*52
$GPRMC,000351.00,A,2257.86656,N,11354.22541,E,18.076,221.71,071217,,,A*5F
$GPRMC,000352.00,A,2257.86283,N,11354.22175,E,18.158,221.24,071217,,,A*5E
$GPRMC,000353.00,A,2257.85903,N,11354.21824,E,17.564,220.99,071217,,,A*52
$GPRMC,000354.00,A,2257.85560,N,11354.21491,E,16.095,221.29,071217,,,A*5E
$GPRMC,000355.00,A,2257.85245,N,11354.21191,E,14.716,221.74,071217,,,A*5C
$GPRMC,000356.00,A,2257.84959,N,11354.20919,E,13.341,221.05,071217,,,A*56
$GPRMC,000357.00,A,2257.84700,N,11354.20675,E,11.950,220.90,071217,,,A*55
$GPRMC,000358.00,A,2257.84474,N,11354.20458,E,10.547,221.34,071217,,,A*53
$GPRMC,000359.00,A,2257.84267,N,11354.20261,E,9.582,221.22,071217,,,A*6C
$GPRMC,000400.00,A,2257.84076,N,11354.20075,E,9.042,222.14,071217,,,A*6D
$GPRMC,000401.00,A,2257.83871,N,11354.19877,E,10.161,221.69,071217,,,A*55
$GPRMC,000402.00,A,2257.83661,N,11354.19669,E,10.394,222.26,071217,,,A*58
$GPRMC,000403.00,A,2257.83452,N,11354.19466,E,9.974,222.04,071217,,,A*6A
$GPRMC,000404.00,A,2257.83240,N,11354.19268,E,9.802,221.37,071217,,,A*63
$GPRMC,000405.00,A,2257.83055,N,11354.19099,E,8.918,221.48,071217,,,A*6B
$GPRMC,000406.00,A,2257.82883,N,11354.18934,E,7.685,221.53,071217,,,A*6B
$GPRMC,000407.00,A,2257.82748,N,11354.18804,E,6.395,221.50,071217,,,A*66
$GPRMC,000408.00,A,2257.82636,N,11354.18703,E,4.620,221.09,071217,,,A*6C
$GPRMC,000409.00,A,2257.82544,N,11354.18617,E,4.210,220.77,071217,,,A*60
$GPRMC,000410.00,A,2257.82450,N,11354.18515,E,4.958,221.96,071217,,,A*64
$GPRMC,000411.00,A,2257.82325,N,11354.18406,E,6.091,220.12,071217,,,A*60
$GPRMC,000412.00,A,2257.82190,N,11354.18272,E,6.779,221.71,071217,,,A*6F
$GPRMC,000413.00,A,2257.82034,N,11354.18125,E,7.710,221.25,071217,,,A*6F
$GPRMC,000414.00,A,2257.81876,N,11354.17973,E,7.437,221.99,071217,,,A*60
$GPRMC,000415.00,A,2257.81711,N,11354.17811,E,8.319,221.16,071217,,,A*69
$GPRMC,000416.00,A,2257.81543,N,11354.17660,E,7.566,221.24,071217,,,A*67
$GPRMC,000417.00,A,2257.81422,N,11354.17538,E,5.278,220.48,071217,,,A*6F
$GPRMC,000418.00,A,2257.81331,N,11354.17456,E,3.854,220.22,071217,,,A*62
$GPRMC,000419.00,A,2257.81265,N,11354.17396,E,2.879,221.09,071217,,,A*6E
$GPRMC,000420.00,A,2257.81234,N,11354.17363,E,1.044,220.18,071217,,,A*6E
$GPRMC,000421.00,A,2257.81231,N,11354.17356,E,0.056,,071217,,,A*79
$GPRMC,000422.00,A,2257.81231,N,11354.17354,E,0.058,,071217,,,A*76
$GPRMC,000423.00,A,2257.81238,N,11354.17349,E,0.019,,071217,,,A*77
$GPRMC,000424.00,A,2257.81239,N,11354.17340,E,0.391,,071217,,,A*7B
$GPRMC,000425.00,A,2257.81235,N,11354.17328,E,0.630,,071217,,,A*76
$GPRMC,000426.00,A,2257.81229,N,11354.17322,E,0.064,,071217,,,A*75
$GPRMC,000427.00,A,2257.81232,N,11354.17320,E,0.059,,071217,,,A*72
$GPRMC,000428.00,A,2257.81231,N,11354.17318,E,0.018,,071217,,,A*70
$GPRMC,000429.00,A,2257.81230,N,11354.17316,E,0.044,,071217,,,A*77
$GPRMC,000430.00,A,2257.81230,N,11354.17312,E,0.034,,071217,,,A*7C
$GPRMC,000431.00,A,2257.81232,N,11354.17307,E,0.051,,071217,,,A*78
$GPRMC,000432.00,A,2257.81232,N,11354.17304,E,0.044,,071217,,,A*7C
$GPRMC,000433.00,A,2257.81231,N,11354.17300,E,0.075,,071217,,,A*78
$GPRMC,000434.00,A,2257.81219,N,11354.17287,E,0.871,,071217,,,A*77
$GPRMC,000435.00,A,2257.81181,N,11354.17255,E,2.250,219.51,071217,,,A*60
$GPRMC,000436.00,A,2257.81129,N,11354.17210,E,2.554,218.94,071217,,,A*6B
$GPRMC,000437.00,A,2257.81076,N,11354.17152,E,2.766,221.40,071217,,,A*64
$GPRMC,000438.00,A,2257.81015,N,11354.17094,E,2.992,221.76,071217,,,A*65
$GPRMC,000439.00,A,2257.80951,N,11354.17031,E,3.117,221.84,071217,,,A*6A
$GPRMC,000440.00,A,2257.80895,N,11354.16968,E,2.676,223.40,071217,,,A*62
$GPRMC,000441.00,A,2257.80867,N,11354.16931,E,1.081,224.27,071217,,,A*69
$GPRMC,000442.00,A,2257.80856,N,11354.16924,E,0.087,,071217,,,A*74
$GPRMC,000443.00,A,2257.80857,N,11354.16922,E,0.174,,071217,,,A*7F
$GPRMC,000444.00,A,2257.80859,N,11354.16923,E,0.048,,071217,,,A*79
$GPRMC,000445.00,A,2257.80870,N,11354.16919,E,0.591,,071217,,,A*7B
$GPRMC,000446.00,A,2257.80875,N,11354.16915,E,0.355,,071217,,,A*7F
$GPRMC,000447.00,A,2257.80881,N,11354.16914,E,0.124,,071217,,,A*70
$GPRMC,000448.00,A,2257.80887,N,11354.16915,E,0.430,,071217,,,A*78
$GPRMC,000449.00,A,2257.80893,N,11354.16913,E,0.101,,071217,,,A*7D
$GPRMC,000450.00,A,2257.80891,N,11354.16918,E,0.017,,071217,,,A*7A
$GPRMC,000451.00,A,2257.80891,N,11354.16919,E,0.064,,071217,,,A*7E
$GPRMC,000452.00,A,2257.80890,N,11354.16920,E,0.003,,071217,,,A*77
$GPRMC,000453.00,A,2257.80890,N,11354.16922,E,0.048,,071217,,,A*7B
$GPRMC,000454.00,A,2257.80890,N,11354.16925,E,0.122,,071217,,,A*76
$GPRMC,000455.00,A,2257.80890,N,11354.16929,E,0.058,,071217,,,A*77
$GPRMC,000456.00,A,2257.80892,N,11354.16933,E,0.122,,071217,,,A*71
$GPRMC,000457.00,A,2257.80894,N,11354.16934,E,0.047,,071217,,,A*73
$GPRMC,000458.00,A,2257.80897,N,11354.16939,E,0.047,,071217,,,A*72
$GPRMC,000459.00,A,2257.80898,N,11354.16942,E,0.052,,071217,,,A*74
$GPRMC,000500.00,A,2257.80896,N,11354.16945,E,0.139,,071217,,,A*7C
$GPRMC,000501.00,A,2257.80897,N,11354.16947,E,0.190,,071217,,,A*7D
$GPRMC,000502.00,A,2257.80893,N,11354.16946,E,0.193,,071217,,,A*78,20171207_080457_346.JPG
$GPRMC,000503.00,A,2257.80875,N,11354.16935,E,0.854,,071217,,,A*77
$GPRMC,000504.00,A,2257.80814,N,11354.16901,E,2.398,218.38,071217,,,A*67,20171207_080459_347.JPG
$GPRMC,000505.00,A,2257.80745,N,11354.16829,E,3.868,222.34,071217,,,A*66
$GPRMC,000506.00,A,2257.80647,N,11354.16734,E,4.937,221.43,071217,,,A*6A,20171207_080500_348.JPG
$GPRMC,000507.00,A,2257.80518,N,11354.16616,E,6.231,222.09,071217,,,A*61
$GPRMC,000508.00,A,2257.80368,N,11354.16473,E,7.268,222.54,071217,,,A*6B
$GPRMC,000509.00,A,2257.80210,N,11354.16318,E,7.678,222.38,071217,,,A*61
$GPRMC,000510.00,A,2257.80051,N,11354.16158,E,7.824,221.89,071217,,,A*66
$GPRMC,000511.00,A,2257.79889,N,11354.16000,E,7.851,222.07,071217,,,A*67
$GPRMC,000512.00,A,2257.79702,N,11354.15817,E,9.227,223.04,071217,,,A*62
$GPRMC,000513.00,A,2257.79496,N,11354.15629,E,9.678,221.59,071217,,,A*6A
$GPRMC,000514.00,A,2257.79301,N,11354.15448,E,8.980,220.98,071217,,,A*64
$GPRMC,000515.00,A,2257.79120,N,11354.15278,E,8.384,220.96,071217,,,A*61
$GPRMC,000516.00,A,2257.78953,N,11354.15118,E,7.766,221.26,071217,,,A*67
$GPRMC,000517.00,A,2257.78796,N,11354.14976,E,6.982,221.10,071217,,,A*60
$GPRMC,000518.00,A,2257.78676,N,11354.14866,E,5.042,221.28,071217,,,A*6D
$GPRMC,000519.00,A,2257.78573,N,11354.14774,E,4.567,220.68,071217,,,A*60
$GPRMC,000520.00,A,2257.78487,N,11354.14692,E,4.044,220.49,071217,,,A*6E
$GPRMC,000521.00,A,2257.78421,N,11354.14638,E,2.471,219.55,071217,,,A*60
$GPRMC,000522.00,A,2257.78371,N,11354.14589,E,2.367,219.00,071217,,,A*68
$GPRMC,000523.00,A,2257.78325,N,11354.14548,E,1.793,219.41,071217,,,A*6C
$GPRMC,000524.00,A,2257.78294,N,11354.14518,E,1.000,,071217,,,A*79
$GPRMC,000525.00,A,2257.78281,N,11354.14508,E,0.316,,071217,,,A*78
$GPRMC,000526.00,A,2257.78257,N,11354.14496,E,1.084,,071217,,,A*7F
$GPRMC,000527.00,A,2257.78260,N,11354.14483,E,0.252,,071217,,,A*76
$GPRMC,000529.00,A,2257.78241,N,11354.14470,E,0.182,,071217,,,A*79
$GPRMC,000530.00,A,2257.78232,N,11354.14471,E,0.244,,071217,,,A*7D
$GPRMC,000531.00,A,2257.78230,N,11354.14476,E,0.125,,071217,,,A*7D
$GPRMC,000532.00,A,2257.78234,N,11354.14476,E,0.103,,071217,,,A*7E
$GPRMC,000533.00,A,2257.78243,N,11354.14476,E,0.110,,071217,,,A*7D
$GPRMC,000534.00,A,2257.78242,N,11354.14471,E,0.039,,071217,,,A*76
$GPRMC,000535.00,A,2257.78245,N,11354.14473,E,0.116,,071217,,,A*7E
$GPRMC,000536.00,A,2257.78253,N,11354.14469,E,0.063,,071217,,,A*72
$GPRMC,000537.00,A,2257.78256,N,11354.14472,E,0.049,,071217,,,A*74
$GPRMC,000538.00,A,2257.78260,N,11354.14472,E,0.022,,071217,,,A*73
$GPRMC,000539.00,A,2257.78262,N,11354.14468,E,0.077,,071217,,,A*7B
$GPRMC,000540.00,A,2257.78261,N,11354.14464,E,0.037,,071217,,,A*7E
$GPRMC,000541.00,A,2257.78260,N,11354.14463,E,0.071,,071217,,,A*7B
$GPRMC,000542.00,A,2257.78260,N,11354.14462,E,0.054,,071217,,,A*7E
$GPRMC,000543.00,A,2257.78259,N,11354.14461,E,0.059,,071217,,,A*7B
$GPRMC,000544.00,A,2257.78255,N,11354.14461,E,0.022,,071217,,,A*7C
$GPRMC,000545.00,A,2257.78253,N,11354.14460,E,0.024,,071217,,,A*7C
$GPRMC,000546.00,A,2257.78251,N,11354.14460,E,0.084,,071217,,,A*77
$GPRMC,000547.00,A,2257.78249,N,11354.14459,E,0.051,,071217,,,A*7D
$GPRMC,000548.00,A,2257.78245,N,11354.14457,E,0.063,,071217,,,A*71
$GPRMC,000549.00,A,2257.78240,N,11354.14454,E,0.086,,071217,,,A*7D
$GPRMC,000550.00,A,2257.78236,N,11354.14450,E,0.086,,071217,,,A*70
$GPRMC,000551.00,A,2257.78229,N,11354.14450,E,0.065,,071217,,,A*72
$GPRMC,000552.00,A,2257.78227,N,11354.14449,E,0.067,,071217,,,A*75
$GPRMC,000553.00,A,2257.78222,N,11354.14451,E,0.083,,071217,,,A*72
$GPRMC,000554.00,A,2257.78220,N,11354.14449,E,0.037,,071217,,,A*71
$GPRMC,000555.00,A,2257.78214,N,11354.14451,E,0.002,,071217,,,A*78
$GPRMC,000556.00,A,2257.78210,N,11354.14449,E,0.050,,071217,,,A*71
$GPRMC,000557.00,A,2257.78207,N,11354.14450,E,0.070,,071217,,,A*7C
$GPRMC,000558.00,A,2257.78203,N,11354.14453,E,0.095,,071217,,,A*7F
$GPRMC,000559.00,A,2257.78202,N,11354.14456,E,0.069,,071217,,,A*79
$GPRMC,000600.00,A,2257.78198,N,11354.14461,E,0.056,,071217,,,A*7E
$GPRMC,000601.00,A,2257.78188,N,11354.14452,E,0.572,,071217,,,A*7D
$GPRMC,000602.00,A,2257.78149,N,11354.14429,E,1.857,219.38,071217,,,A*6B
$GPRMC,000603.00,A,2257.78085,N,11354.14357,E,3.875,224.19,071217,,,A*6A
$GPRMC,000604.00,A,2257.77987,N,11354.14253,E,5.475,221.66,071217,,,A*6B
$GPRMC,000605.00,A,2257.77865,N,11354.14131,E,6.224,220.84,071217,,,A*6C
$GPRMC,000606.00,A,2257.77735,N,11354.14008,E,6.331,221.07,071217,,,A*61
$GPRMC,000607.00,A,2257.77598,N,11354.13883,E,6.380,221.15,071217,,,A*60
$GPRMC,000608.00,A,2257.77444,N,11354.13744,E,7.398,221.34,071217,,,A*60
$GPRMC,000609.00,A,2257.77316,N,11354.13621,E,5.744,221.07,071217,,,A*64
$GPRMC,000610.00,A,2257.77210,N,11354.13504,E,5.626,220.99,071217,,,A*6C
$GPRMC,000611.00,A,2257.77079,N,11354.13362,E,7.129,221.37,071217,,,A*69
$GPRMC,000612.00,A,2257.76914,N,11354.13208,E,8.106,221.49,071217,,,A*6F
$GPRMC,000613.00,A,2257.76750,N,11354.13050,E,7.597,222.14,071217,,,A*67
$GPRMC,000614.00,A,2257.76626,N,11354.12917,E,5.442,222.92,071217,,,A*6E
$GPRMC,000615.00,A,2257.76532,N,11354.12822,E,4.417,222.21,071217,,,A*67
$GPRMC,000616.00,A,2257.76443,N,11354.12735,E,4.449,221.80,071217,,,A*69
$GPRMC,000617.00,A,2257.76334,N,11354.12628,E,5.455,221.01,071217,,,A*67
$GPRMC,000618.00,A,2257.76207,N,11354.12505,E,6.274,221.92,071217,,,A*69
$GPRMC,000619.00,A,2257.76059,N,11354.12369,E,7.205,220.94,071217,,,A*6D
$GPRMC,000620.00,A,2257.75908,N,11354.12224,E,7.301,221.52,071217,,,A*6F
$GPRMC,000621.00,A,2257.75755,N,11354.12083,E,7.076,221.44,071217,,,A*63
$GPRMC,000622.00,A,2257.75622,N,11354.11945,E,6.498,221.55,071217,,,A*64
$GPRMC,000623.00,A,2257.75511,N,11354.11833,E,5.059,220.93,071217,,,A*67
$GPRMC,000624.00,A,2257.75434,N,11354.11752,E,3.451,221.75,071217,,,A*6D
$GPRMC,000625.00,A,2257.75374,N,11354.11689,E,2.738,221.81,071217,,,A*6E
$GPRMC,000626.00,A,2257.75343,N,11354.11665,E,0.819,221.21,071217,,,A*6F
$GPRMC,000627.00,A,2257.75333,N,11354.11662,E,0.228,,071217,,,A*7A
$GPRMC,000628.00,A,2257.75330,N,11354.11665,E,0.117,,071217,,,A*7E
$GPRMC,000629.00,A,2257.75322,N,11354.11673,E,0.083,,071217,,,A*77,20171207_080624_352.JPG
$GPRMC,000630.00,A,2257.75317,N,11354.11680,E,0.015,,071217,,,A*7A,20171207_080625_353.JPG
$GPRMC,000631.00,A,2257.75314,N,11354.11684,E,0.100,,071217,,,A*79,20171207_080626_354.JPG
$GPRMC,000632.00,A,2257.75313,N,11354.11688,E,0.119,,071217,,,A*79
$GPRMC,000633.00,A,2257.75311,N,11354.11692,E,0.029,,071217,,,A*73,20171207_080628_355.JPG
$GPRMC,000634.00,A,2257.75309,N,11354.11694,E,0.027,,071217,,,A*75,20171207_080629_356.JPG
$GPRMC,000635.00,A,2257.75307,N,11354.11698,E,0.172,,071217,,,A*77,20171207_080630_357.JPG
$GPRMC,000636.00,A,2257.75303,N,11354.11702,E,0.026,,071217,,,A*72,20171207_080631_358.JPG
$GPRMC,000637.00,A,2257.75302,N,11354.11707,E,0.088,,071217,,,A*73
$GPRMC,000638.00,A,2257.75296,N,11354.11714,E,0.427,,071217,,,A*73,20171207_080632_359.JPG
$GPRMC,000639.00,A,2257.75296,N,11354.11717,E,0.042,,071217,,,A*76,20171207_080634_360.JPG
$GPRMC,000640.00,A,2257.75292,N,11354.11717,E,0.287,,071217,,,A*77,20171207_080635_361.JPG
$GPRMC,000641.00,A,2257.75290,N,11354.11718,E,0.279,,071217,,,A*7A,20171207_080636_362.JPG
$GPRMC,000642.00,A,2257.75282,N,11354.11721,E,0.110,,071217,,,A*7C
$GPRMC,000643.00,A,2257.75288,N,11354.11721,E,0.155,,071217,,,A*76
$GPRMC,000644.00,A,2257.75285,N,11354.11721,E,0.062,,071217,,,A*79
$GPRMC,000645.00,A,2257.75282,N,11354.11724,E,0.032,,071217,,,A*7F
$GPRMC,000646.00,A,2257.75281,N,11354.11727,E,0.029,,071217,,,A*76
$GPRMC,000647.00,A,2257.75280,N,11354.11730,E,0.011,,071217,,,A*7B
$GPRMC,000648.00,A,2257.75279,N,11354.11732,E,0.022,,071217,,,A*70
$GPRMC,000649.00,A,2257.75278,N,11354.11736,E,0.038,,071217,,,A*7F
$GPRMC,000650.00,A,2257.75279,N,11354.11737,E,0.153,,071217,,,A*7B
$GPRMC,000651.00,A,2257.75284,N,11354.11737,E,0.040,,071217,,,A*7B
$GPRMC,000652.00,A,2257.75287,N,11354.11738,E,0.045,,071217,,,A*71
$GPRMC,000653.00,A,2257.75287,N,11354.11741,E,0.065,,071217,,,A*7C
$GPRMC,000654.00,A,2257.75288,N,11354.11744,E,0.055,,071217,,,A*72
$GPRMC,000655.00,A,2257.75288,N,11354.11748,E,0.062,,071217,,,A*7B
$GPRMC,000656.00,A,2257.75293,N,11354.11751,E,0.011,,071217,,,A*7E
$GPRMC,000657.00,A,2257.75299,N,11354.11754,E,0.091,,071217,,,A*78
$GPRMC,000658.00,A,2257.75305,N,11354.11753,E,0.030,,071217,,,A*7F
$GPRMC,000659.00,A,2257.75311,N,11354.11752,E,0.010,,071217,,,A*78
$GPRMC,000700.00,A,2257.75312,N,11354.11755,E,0.027,,071217,,,A*75
$GPRMC,000701.00,A,2257.75313,N,11354.11757,E,0.023,,071217,,,A*73
$GPRMC,000702.00,A,2257.75309,N,11354.11748,E,0.550,,071217,,,A*74
$GPRMC,000703.00,A,2257.75278,N,11354.11719,E,1.859,220.62,071217,,,A*69
$GPRMC,000704.00,A,2257.75220,N,11354.11654,E,3.424,219.59,071217,,,A*6D
$GPRMC,000705.00,A,2257.75140,N,11354.11584,E,3.561,220.00,071217,,,A*61
$GPRMC,000706.00,A,2257.75060,N,11354.11518,E,3.333,219.79,071217,,,A*61
$GPRMC,000707.00,A,2257.74971,N,11354.11435,E,4.489,219.88,071217,,,A*69
$GPRMC,000708.00,A,2257.74853,N,11354.11343,E,5.279,218.17,071217,,,A*6E
$GPRMC,000709.00,A,2257.74736,N,11354.11237,E,5.415,219.46,071217,,,A*68
$GPRMC,000710.00,A,2257.74598,N,11354.11109,E,6.774,219.92,071217,,,A*66
$GPRMC,000711.00,A,2257.74425,N,11354.10951,E,8.419,220.13,071217,,,A*61
$GPRMC,000712.00,A,2257.74271,N,11354.10797,E,6.975,220.63,071217,,,A*6F
$GPRMC,000713.00,A,2257.74137,N,11354.10661,E,6.320,221.19,071217,,,A*61
$GPRMC,000714.00,A,2257.74032,N,11354.10559,E,4.625,220.79,071217,,,A*6F
$GPRMC,000715.00,A,2257.73939,N,11354.10467,E,4.255,221.24,071217,,,A*6D
$GPRMC,000716.00,A,2257.73844,N,11354.10376,E,4.377,219.94,071217,,,A*63
$GPRMC,000717.00,A,2257.73719,N,11354.10272,E,5.947,217.89,071217,,,A*6A
$GPRMC,000718.00,A,2257.73577,N,11354.10142,E,7.037,220.02,071217,,,A*64
$GPRMC,000719.00,A,2257.73400,N,11354.09973,E,8.929,221.08,071217,,,A*64
$GPRMC,000720.00,A,2257.73191,N,11354.09785,E,9.976,220.48,071217,,,A*6A
$GPRMC,000721.00,A,2257.72974,N,11354.09580,E,10.317,220.46,071217,,,A*55
$GPRMC,000722.00,A,2257.72756,N,11354.09378,E,10.301,220.59,071217,,,A*50
$GPRMC,000723.00,A,2257.72537,N,11354.09168,E,10.696,220.73,071217,,,A*54
$GPRMC,000724.00,A,2257.72331,N,11354.08970,E,9.491,221.11,071217,,,A*6B
$GPRMC,000725.00,A,2257.72145,N,11354.08791,E,8.451,220.85,071217,,,A*6B
$GPRMC,000726.00,A,2257.71972,N,11354.08634,E,8.225,219.63,071217,,,A*6E
$GPRMC,000727.00,A,2257.71784,N,11354.08466,E,9.058,219.39,071217,,,A*6B
$GPRMC,000728.00,A,2257.71566,N,11354.08260,E,10.842,219.75,071217,,,A*59
$GPRMC,000729.00,A,2257.71350,N,11354.08056,E,10.119,220.90,071217,,,A*5A
$GPRMC,000730.00,A,2257.71135,N,11354.07839,E,10.708,221.92,071217,,,A*58
$GPRMC,000731.00,A,2257.70895,N,11354.07599,E,11.900,222.34,071217,,,A*54
$GPRMC,000732.00,A,2257.70643,N,11354.07347,E,12.410,222.57,071217,,,A*5D
$GPRMC,000733.00,A,2257.70394,N,11354.07115,E,11.394,220.65,071217,,,A*5D
$GPRMC,000734.00,A,2257.70181,N,11354.06913,E,9.731,220.61,071217,,,A*65
$GPRMC,000735.00,A,2257.69985,N,11354.06722,E,9.423,221.25,071217,,,A*6D
$GPRMC,000736.00,A,2257.69783,N,11354.06508,E,10.376,223.47,071217,,,A*55
$GPRMC,000737.00,A,2257.69543,N,11354.06277,E,11.795,222.51,071217,,,A*5B
$GPRMC,000738.00,A,2257.69302,N,11354.06041,E,11.650,221.52,071217,,,A*58
$GPRMC,000739.00,A,2257.69052,N,11354.05792,E,12.463,222.10,071217,,,A*51
$GPRMC,000740.00,A,2257.68781,N,11354.05540,E,13.044,220.73,071217,,,A*5D
$GPRMC,000741.00,A,2257.68477,N,11354.05246,E,14.903,221.27,071217,,,A*5A
$GPRMC,000742.00,A,2257.68137,N,11354.04922,E,16.256,221.64,071217,,,A*5E
$GPRMC,000743.00,A,2257.67771,N,11354.04573,E,17.882,221.72,071217,,,A*59
$GPRMC,000744.00,A,2257.67400,N,11354.04210,E,17.900,222.04,071217,,,A*50
$GPRMC,000745.00,A,2257.67016,N,11354.03844,E,18.191,221.51,071217,,,A*52
$GPRMC,000746.00,A,2257.66625,N,11354.03469,E,18.816,221.58,071217,,,A*5A
$GPRMC,000747.00,A,2257.66214,N,11354.03065,E,20.255,222.62,071217,,,A*59
$GPRMC,000748.00,A,2257.65774,N,11354.02627,E,21.804,222.34,071217,,,A*5B
$GPRMC,000749.00,A,2257.65309,N,11354.02179,E,22.415,221.69,071217,,,A*5C
$GPRMC,000750.00,A,2257.64831,N,11354.01715,E,22.978,222.03,071217,,,A*53
$GPRMC,000751.00,A,2257.64343,N,11354.01242,E,23.594,221.69,071217,,,A*5B
$GPRMC,000752.00,A,2257.63844,N,11354.00763,E,23.786,221.40,071217,,,A*5E
$GPRMC,000753.00,A,2257.63347,N,11354.00283,E,23.874,221.74,071217,,,A*59
$GPRMC,000754.00,A,2257.62857,N,11353.99805,E,23.631,221.78,071217,,,A*55
$GPRMC,000755.00,A,2257.62372,N,11353.99335,E,23.385,221.67,071217,,,A*54
$GPRMC,000756.00,A,2257.61886,N,11353.98871,E,23.253,221.46,071217,,,A*57
$GPRMC,000757.00,A,2257.61392,N,11353.98400,E,23.533,221.46,071217,,,A*53
$GPRMC,000758.00,A,2257.60902,N,11353.97936,E,23.305,221.25,071217,,,A*5F
$GPRMC,000759.00,A,2257.60408,N,11353.97468,E,23.679,221.24,071217,,,A*50
$GPRMC,000800.00,A,2257.59898,N,11353.96984,E,24.798,221.27,071217,,,A*58
$GPRMC,000801.00,A,2257.59363,N,11353.96478,E,25.671,221.36,071217,,,A*5F
$GPRMC,000802.00,A,2257.58805,N,11353.95956,E,26.619,221.50,071217,,,A*59
$GPRMC,000803.00,A,2257.58249,N,11353.95418,E,26.898,221.58,071217,,,A*52
$GPRMC,000804.00,A,2257.57696,N,11353.94888,E,26.654,221.42,071217,,,A*5D
$GPRMC,000805.00,A,2257.57146,N,11353.94365,E,26.172,221.61,071217,,,A*5C
$GPRMC,000806.00,A,2257.56607,N,11353.93861,E,25.200,221.09,071217,,,A*5F
$GPRMC,000807.00,A,2257.56096,N,11353.93348,E,24.813,223.37,071217,,,A*56
$GPRMC,000808.00,A,2257.55577,N,11353.92847,E,24.818,221.64,071217,,,A*5A
$GPRMC,000809.00,A,2257.55062,N,11353.92358,E,24.665,221.24,071217,,,A*5F
$GPRMC,000810.00,A,2257.54541,N,11353.91868,E,24.658,221.50,071217,,,A*54
$GPRMC,000811.00,A,2257.54029,N,11353.91368,E,24.633,222.24,071217,,,A*58
$GPRMC,000812.00,A,2257.53535,N,11353.90893,E,23.376,221.60,071217,,,A*5A
$GPRMC,000813.00,A,2257.53073,N,11353.90446,E,21.942,221.88,071217,,,A*51
$GPRMC,000814.00,A,2257.52643,N,11353.90031,E,20.364,221.49,071217,,,A*54
$GPRMC,000815.00,A,2257.52246,N,11353.89654,E,18.338,221.56,071217,,,A*55
$GPRMC,000816.00,A,2257.51872,N,11353.89300,E,17.322,222.19,071217,,,A*50
$GPRMC,000817.00,A,2257.51521,N,11353.88963,E,16.621,221.56,071217,,,A*5B
$GPRMC,000818.00,A,2257.51202,N,11353.88654,E,14.999,221.47,071217,,,A*57
$GPRMC,000819.00,A,2257.50917,N,11353.88377,E,13.375,222.09,071217,,,A*5A
$GPRMC,000820.00,A,2257.50653,N,11353.88126,E,12.071,221.31,071217,,,A*57
$GPRMC,000821.00,A,2257.50422,N,11353.87901,E,10.945,220.97,071217,,,A*51
$GPRMC,000822.00,A,2257.50216,N,11353.87706,E,9.427,220.66,071217,,,A*65
$GPRMC,000823.00,A,2257.50029,N,11353.87525,E,8.723,221.35,071217,,,A*68
$GPRMC,000824.00,A,2257.49854,N,11353.87354,E,8.184,221.98,071217,,,A*69
$GPRMC,000825.00,A,2257.49687,N,11353.87194,E,7.934,221.78,071217,,,A*64
$GPRMC,000826.00,A,2257.49530,N,11353.87032,E,7.836,221.03,071217,,,A*6A
$GPRMC,000827.00,A,2257.49384,N,11353.86887,E,7.068,221.83,071217,,,A*6E
$GPRMC,000828.00,A,2257.49242,N,11353.86753,E,6.269,222.14,071217,,,A*63
$GPRMC,000829.00,A,2257.49109,N,11353.86630,E,6.009,220.72,071217,,,A*6C
$GPRMC,000830.00,A,2257.48994,N,11353.86525,E,5.274,219.46,071217,,,A*68
$GPRMC,000831.00,A,2257.48905,N,11353.86458,E,3.210,218.10,071217,,,A*6C
$GPRMC,000832.00,A,2257.48870,N,11353.86430,E,0.871,,071217,,,A*78
$GPRMC,000833.00,A,2257.48862,N,11353.86427,E,0.087,,071217,,,A*7D
$GPRMC,000834.00,A,2257.48864,N,11353.86430,E,0.171,,071217,,,A*72
$GPRMC,000835.00,A,2257.48864,N,11353.86434,E,0.072,,071217,,,A*75
$GPRMC,000836.00,A,2257.48866,N,11353.86438,E,0.073,,071217,,,A*79
$GPRMC,000837.00,A,2257.48867,N,11353.86441,E,0.178,,071217,,,A*7D
$GPRMC,000838.00,A,2257.48868,N,11353.86445,E,0.055,,071217,,,A*77
$GPRMC,000839.00,A,2257.48866,N,11353.86451,E,0.189,,071217,,,A*7D
$GPRMC,000840.00,A,2257.48866,N,11353.86456,E,0.068,,071217,,,A*7A
$GPRMC,000841.00,A,2257.48863,N,11353.86459,E,0.178,,071217,,,A*71
$GPRMC,000842.00,A,2257.48861,N,11353.86464,E,0.040,,071217,,,A*74
$GPRMC,000843.00,A,2257.48859,N,11353.86468,E,0.194,,071217,,,A*7A
$GPRMC,000844.00,A,2257.48853,N,11353.86472,E,0.127,,071217,,,A*74
$GPRMC,000845.00,A,2257.48848,N,11353.86475,E,0.358,,071217,,,A*72
$GPRMC,000846.00,A,2257.48845,N,11353.86477,E,0.127,,071217,,,A*74
$GPRMC,000847.00,A,2257.48848,N,11353.86476,E,0.200,,071217,,,A*7F
$GPRMC,000848.00,A,2257.48844,N,11353.86477,E,0.201,,071217,,,A*7C
$GPRMC,000849.00,A,2257.48833,N,11353.86480,E,0.180,,071217,,,A*7F
$GPRMC,000850.00,A,2257.48834,N,11353.86478,E,0.338,,071217,,,A*76,20171207_080845_365.JPG
$GPRMC,000851.00,A,2257.48833,N,11353.86477,E,0.503,,071217,,,A*71
$GPRMC,000852.00,A,2257.48824,N,11353.86479,E,0.345,,071217,,,A*7E
$GPRMC,000853.00,A,2257.48821,N,11353.86480,E,0.295,,071217,,,A*70
$GPRMC,000854.00,A,2257.48818,N,11353.86481,E,0.249,,071217,,,A*7D
$GPRMC,000855.00,A,2257.48806,N,11353.86487,E,1.046,199.46,071217,,,A*64
$GPRMC,000856.00,A,2257.48806,N,11353.86486,E,0.202,,071217,,,A*78
$GPRMC,000857.00,A,2257.48799,N,11353.86488,E,0.240,,071217,,,A*78
$GPRMC,000858.00,A,2257.48797,N,11353.86488,E,0.114,,071217,,,A*7B
$GPRMC,000859.00,A,2257.48790,N,11353.86492,E,0.472,,071217,,,A*73
$GPRMC,000900.00,A,2257.48786,N,11353.86494,E,0.322,,071217,,,A*7D
$GPRMC,000901.00,A,2257.48779,N,11353.86497,E,0.202,,071217,,,A*7C
$GPRMC,000902.00,A,2257.48773,N,11353.86500,E,0.049,,071217,,,A*77
$GPRMC,000903.00,A,2257.48776,N,11353.86500,E,0.142,,071217,,,A*79
$GPRMC,000904.00,A,2257.48770,N,11353.86502,E,0.076,,071217,,,A*7C
$GPRMC,000905.00,A,2257.48764,N,11353.86504,E,0.046,,071217,,,A*7D
$GPRMC,000906.00,A,2257.48755,N,11353.86508,E,0.026,,071217,,,A*76
$GPRMC,000907.00,A,2257.48755,N,11353.86509,E,0.110,,071217,,,A*72
$GPRMC,000908.00,A,2257.48749,N,11353.86512,E,0.058,,071217,,,A*77
$GPRMC,000909.00,A,2257.48745,N,11353.86515,E,0.035,,071217,,,A*76
$GPRMC,000910.00,A,2257.48746,N,11353.86514,E,0.039,,071217,,,A*70
$GPRMC,000911.00,A,2257.48744,N,11353.86515,E,0.105,,071217,,,A*7C
$GPRMC,000912.00,A,2257.48740,N,11353.86517,E,0.144,,071217,,,A*7C
$GPRMC,000913.00,A,2257.48735,N,11353.86517,E,0.037,,071217,,,A*7A
$GPRMC,000914.00,A,2257.48732,N,11353.86517,E,0.044,,071217,,,A*7E
$GPRMC,000915.00,A,2257.48728,N,11353.86517,E,0.066,,071217,,,A*74
$GPRMC,000916.00,A,2257.48726,N,11353.86518,E,0.053,,071217,,,A*70
$GPRMC,000917.00,A,2257.48725,N,11353.86517,E,0.075,,071217,,,A*79
$GPRMC,000918.00,A,2257.48720,N,11353.86520,E,0.027,,071217,,,A*70
$GPRMC,000919.00,A,2257.48715,N,11353.86520,E,0.058,,071217,,,A*7F
$GPRMC,000920.00,A,2257.48707,N,11353.86522,E,0.073,,071217,,,A*7D
$GPRMC,000921.00,A,2257.48705,N,11353.86523,E,0.028,,071217,,,A*71
$GPRMC,000922.00,A,2257.48709,N,11353.86519,E,0.175,,071217,,,A*7E
$GPRMC,000923.00,A,2257.48710,N,11353.86517,E,0.140,,071217,,,A*7F
$GPRMC,000924.00,A,2257.48710,N,11353.86518,E,0.035,,071217,,,A*74
$GPRMC,000925.00,A,2257.48709,N,11353.86517,E,0.037,,071217,,,A*70
$GPRMC,000926.00,A,2257.48713,N,11353.86516,E,0.084,,071217,,,A*71
$GPRMC,000927.00,A,2257.48713,N,11353.86515,E,0.093,,071217,,,A*75
$GPRMC,000928.00,A,2257.48714,N,11353.86515,E,0.021,,071217,,,A*74
$GPRMC,000929.00,A,2257.48709,N,11353.86518,E,0.268,,071217,,,A*7B
$GPRMC,000930.00,A,2257.48707,N,11353.86520,E,0.007,,071217,,,A*7D
$GPRMC,000931.00,A,2257.48706,N,11353.86521,E,0.030,,071217,,,A*78
$GPRMC,000932.00,A,2257.48707,N,11353.86520,E,0.069,,071217,,,A*77
$GPRMC,000933.00,A,2257.48707,N,11353.86519,E,0.071,,071217,,,A*75
$GPRMC,000934.00,A,2257.48709,N,11353.86517,E,0.019,,071217,,,A*7C
$GPRMC,000935.00,A,2257.48712,N,11353.86515,E,0.007,,071217,,,A*7A
$GPRMC,000936.00,A,2257.48717,N,11353.86512,E,0.059,,071217,,,A*70
$GPRMC,000937.00,A,2257.48720,N,11353.86509,E,0.026,,071217,,,A*77
$GPRMC,000938.00,A,2257.48721,N,11353.86506,E,0.028,,071217,,,A*78
$GPRMC,000939.00,A,2257.48719,N,11353.86505,E,0.047,,071217,,,A*78
$GPRMC,000940.00,A,2257.48708,N,11353.86493,E,0.718,,071217,,,A*75
$GPRMC,000941.00,A,2257.48657,N,11353.86444,E,3.104,215.81,071217,,,A*6C
$GPRMC,000942.00,A,2257.48556,N,11353.86350,E,5.455,217.97,071217,,,A*6D
$GPRMC,000943.00,A,2257.48420,N,11353.86226,E,6.756,219.70,071217,,,A*68
$GPRMC,000944.00,A,2257.48242,N,11353.86059,E,9.054,221.34,071217,,,A*66
$GPRMC,000945.00,A,2257.48027,N,11353.85865,E,10.438,219.62,071217,,,A*5C
$GPRMC,000946.00,A,2257.47776,N,11353.85631,E,12.568,220.25,071217,,,A*53
$GPRMC,000947.00,A,2257.47532,N,11353.85400,E,11.389,220.34,071217,,,A*5A
$GPRMC,000948.00,A,2257.47294,N,11353.85178,E,11.223,220.37,071217,,,A*56
$GPRMC,000949.00,A,2257.47006,N,11353.84908,E,14.627,220.71,071217,,,A*57
$GPRMC,000950.00,A,2257.46696,N,11353.84621,E,14.836,219.00,071217,,,A*57
$GPRMC,000951.00,A,2257.46353,N,11353.84355,E,15.099,215.35,071217,,,A*5A
$GPRMC,000952.00,A,2257.45975,N,11353.84095,E,16.399,212.05,071217,,,A*5F
$GPRMC,000953.00,A,2257.45576,N,11353.83826,E,17.018,211.12,071217,,,A*58
$GPRMC,000954.00,A,2257.45174,N,11353.83560,E,16.918,211.24,071217,,,A*5B
$GPRMC,000955.00,A,2257.44761,N,11353.83289,E,17.521,210.26,071217,,,A*5D
$GPRMC,000956.00,A,2257.44330,N,11353.83005,E,18.273,211.21,071217,,,A*51
$GPRMC,000957.00,A,2257.43867,N,11353.82678,E,20.546,213.82,071217,,,A*52
$GPRMC,000958.00,A,2257.43353,N,11353.82307,E,22.881,213.52,071217,,,A*55
$GPRMC,000959.00,A,2257.42778,N,11353.81926,E,24.877,209.82,071217,,,A*5B
$GPRMC,001000.00,A,2257.42151,N,11353.81574,E,25.661,206.24,071217,,,A*52
$GPRMC,001001.00,A,2257.41498,N,11353.81252,E,25.962,203.54,071217,,,A*5D
$GPRMC,001002.00,A,2257.40804,N,11353.80960,E,27.256,200.03,071217,,,A*52
$GPRMC,001003.00,A,2257.40095,N,11353.80707,E,26.956,197.15,071217,,,A*5C
$GPRMC,001004.00,A,2257.39366,N,11353.80479,E,27.546,195.99,071217,,,A*5A
$GPRMC,001005.00,A,2257.38629,N,11353.80254,E,27.570,195.70,071217,,,A*5F
$GPRMC,001006.00,A,2257.37904,N,11353.80041,E,26.789,194.98,071217,,,A*57
$GPRMC,001007.00,A,2257.37178,N,11353.79847,E,26.938,193.36,071217,,,A*5A
$GPRMC,001008.00,A,2257.36452,N,11353.79669,E,26.808,192.67,071217,,,A*5C
$GPRMC,001009.00,A,2257.35721,N,11353.79505,E,26.577,191.33,071217,,,A*57
$GPRMC,001010.00,A,2257.35002,N,11353.79376,E,25.868,188.93,071217,,,A*59
$GPRMC,001011.00,A,2257.34305,N,11353.79263,E,25.219,188.26,071217,,,A*5A
$GPRMC,001012.00,A,2257.33623,N,11353.79164,E,24.535,187.13,071217,,,A*5A
$GPRMC,001013.00,A,2257.32950,N,11353.79085,E,24.347,185.51,071217,,,A*58
$GPRMC,001014.00,A,2257.32267,N,11353.79028,E,24.886,183.83,071217,,,A*58
$GPRMC,001015.00,A,2257.31560,N,11353.78996,E,25.626,181.75,071217,,,A*59
$GPRMC,001016.00,A,2257.30814,N,11353.78986,E,27.128,180.45,071217,,,A*5D
$GPRMC,001017.00,A,2257.30028,N,11353.78993,E,28.728,179.04,071217,,,A*55
$GPRMC,001018.00,A,2257.29196,N,11353.79026,E,30.212,178.07,071217,,,A*57
$GPRMC,001019.00,A,2257.28359,N,11353.79075,E,29.919,176.65,071217,,,A*52
$GPRMC,001020.00,A,2257.27570,N,11353.79117,E,27.614,177.27,071217,,,A*54
$GPRMC,001021.00,A,2257.26844,N,11353.79151,E,25.434,177.67,071217,,,A*5A
$GPRMC,001022.00,A,2257.26173,N,11353.79184,E,23.806,177.62,071217,,,A*52
$GPRMC,001023.00,A,2257.25564,N,11353.79212,E,21.276,178.11,071217,,,A*5A
$GPRMC,001024.00,A,2257.25039,N,11353.79222,E,17.758,178.68,071217,,,A*51
$GPRMC,001025.00,A,2257.24623,N,11353.79226,E,13.688,179.34,071217,,,A*58
$GPRMC,001026.00,A,2257.24336,N,11353.79220,E,8.988,180.21,071217,,,A*6B
$GPRMC,001027.00,A,2257.24144,N,11353.79209,E,6.284,181.41,071217,,,A*68
$GPRMC,001028.00,A,2257.23995,N,11353.79206,E,5.095,180.54,071217,,,A*6F
$GPRMC,001029.00,A,2257.23908,N,11353.79214,E,2.221,180.38,071217,,,A*69
$GPRMC,001030.00,A,2257.23892,N,11353.79212,E,0.081,,071217,,,A*73
$GPRMC,001031.00,A,2257.23895,N,11353.79205,E,0.064,,071217,,,A*78
$GPRMC,001032.00,A,2257.23895,N,11353.79202,E,0.013,,071217,,,A*7C
$GPRMC,001033.00,A,2257.23895,N,11353.79203,E,0.026,,071217,,,A*7A
$GPRMC,001034.00,A,2257.23893,N,11353.79205,E,0.037,,071217,,,A*7D
$GPRMC,001035.00,A,2257.23890,N,11353.79207,E,0.033,,071217,,,A*79
$GPRMC,001036.00,A,2257.23891,N,11353.79212,E,0.014,,071217,,,A*7A
$GPRMC,001037.00,A,2257.23889,N,11353.79217,E,0.041,,071217,,,A*77
$GPRMC,001038.00,A,2257.23894,N,11353.79222,E,0.148,,071217,,,A*7A
$GPRMC,001039.00,A,2257.23895,N,11353.79226,E,0.058,,071217,,,A*7E
$GPRMC,001040.00,A,2257.23897,N,11353.79235,E,0.107,,071217,,,A*7B
$GPRMC,001041.00,A,2257.23896,N,11353.79238,E,0.046,,071217,,,A*72
$GPRMC,001042.00,A,2257.23894,N,11353.79239,E,0.033,,071217,,,A*70
$GPRMC,001043.00,A,2257.23893,N,11353.79241,E,0.019,,071217,,,A*71
$GPRMC,001044.00,A,2257.23893,N,11353.79245,E,0.048,,071217,,,A*76
$GPRMC,001045.00,A,2257.23894,N,11353.79247,E,0.051,,071217,,,A*7A
$GPRMC,001046.00,A,2257.23895,N,11353.79248,E,0.049,,071217,,,A*7E
$GPRMC,001047.00,A,2257.23896,N,11353.79250,E,0.078,,071217,,,A*77
$GPRMC,001048.00,A,2257.23895,N,11353.79255,E,0.032,,071217,,,A*70
$GPRMC,001049.00,A,2257.23892,N,11353.79256,E,0.034,,071217,,,A*73
$GPRMC,001050.00,A,2257.23888,N,11353.79256,E,0.057,,071217,,,A*75
$GPRMC,001051.00,A,2257.23886,N,11353.79256,E,0.040,,071217,,,A*7C
$GPRMC,001052.00,A,2257.23882,N,11353.79254,E,0.030,,071217,,,A*7E
$GPRMC,001053.00,A,2257.23885,N,11353.79257,E,0.062,,071217,,,A*7C
$GPRMC,001054.00,A,2257.23868,N,11353.79257,E,0.737,180.31,071217,,,A*6A
$GPRMC,001055.00,A,2257.23792,N,11353.79255,E,3.280,180.09,071217,,,A*62
$GPRMC,001056.00,A,2257.23636,N,11353.79256,E,6.629,179.91,071217,,,A*68
$GPRMC,001057.00,A,2257.23365,N,11353.79255,E,10.927,180.00,071217,,,A*51
$GPRMC,001058.00,A,2257.22987,N,11353.79256,E,14.812,180.15,071217,,,A*5D
$GPRMC,001059.00,A,2257.22504,N,11353.79249,E,18.153,180.21,071217,,,A*52
$GPRMC,001100.00,A,2257.21938,N,11353.79242,E,21.017,180.72,071217,,,A*59
$GPRMC,001101.00,A,2257.21302,N,11353.79221,E,23.552,182.00,071217,,,A*5F
$GPRMC,001102.00,A,2257.20603,N,11353.79181,E,25.561,183.12,071217,,,A*54
$GPRMC,001103.00,A,2257.19854,N,11353.79130,E,27.500,183.41,071217,,,A*5A
$GPRMC,001104.00,A,2257.19116,N,11353.79061,E,26.198,185.65,071217,,,A*53
$GPRMC,001105.00,A,2257.18360,N,11353.78994,E,27.194,184.74,071217,,,A*5E
$GPRMC,001106.00,A,2257.17440,N,11353.78947,E,31.219,183.35,071217,,,A*5A
$GPRMC,001107.00,A,2257.16513,N,11353.78842,E,33.129,185.87,071217,,,A*54
$GPRMC,001108.00,A,2257.15565,N,11353.78794,E,33.838,181.97,071217,,,A*51
$GPRMC,001109.00,A,2257.14610,N,11353.78656,E,34.610,186.47,071217,,,A*56
$GPRMC,001110.00,V,,,,,,,071217,,,N*7E
$GPRMC,001111.00,V,,,,,,,071217,,,N*7F
$GPRMC,001112.00,V,,,,,,,071217,,,N*7C
$GPRMC,001113.00,V,,,,,,,071217,,,N*7D
$GPRMC,001114.00,V,,,,,,,071217,,,N*7A
$GPRMC,001115.00,A,2257.08289,N,11353.77633,E,40.700,189.44,071217,,,A*51
$GPRMC,001116.00,V,,,,,,,071217,,,N*78
$GPRMC,001117.00,A,2257.06013,N,11353.77067,E,40.868,191.31,071217,,,A*51
$GPRMC,001118.00,A,2257.05018,N,11353.76659,E,39.479,194.42,071217,,,A*5F
$GPRMC,001119.00,A,2257.04162,N,11353.76242,E,37.375,196.87,071217,,,A*53
$GPRMC,001120.00,V,,,,,,,071217,,,N*7D
$GPRMC,001121.00,V,,,,,,,071217,,,N*7C
$GPRMC,001122.00,V,,,,,,,071217,,,N*7F
$GPRMC,001123.00,V,,,,,,,071217,,,N*7E
$GPRMC,001124.00,A,2256.99379,N,11353.74358,E,36.530,202.15,071217,,,A*5B
$GPRMC,001125.00,A,2256.98484,N,11353.73907,E,36.389,202.37,071217,,,A*5D
$GPRMC,001126.00,A,2256.97549,N,11353.73482,E,37.234,202.54,071217,,,A*52
$GPRMC,001127.00,A,2256.96766,N,11353.72903,E,36.737,204.12,071217,,,A*5B
$GPRMC,001128.00,A,2256.95843,N,11353.72330,E,37.409,205.22,071217,,,A*58
$GPRMC,001129.00,A,2256.94919,N,11353.71849,E,36.100,206.21,071217,,,A*5D
$GPRMC,001130.00,A,2256.94050,N,11353.71379,E,35.765,206.82,071217,,,A*56
$GPRMC,001131.00,A,2256.93190,N,11353.70871,E,35.627,208.07,071217,,,A*5B
$GPRMC,001132.00,A,2256.92327,N,11353.70363,E,35.327,208.68,071217,,,A*53
$GPRMC,001133.00,A,2256.91471,N,11353.69853,E,35.250,209.37,071217,,,A*5F
$GPRMC,001134.00,A,2256.90610,N,11353.69342,E,34.169,210.65,071217,,,A*50
$GPRMC,001135.00,A,2256.89776,N,11353.68797,E,34.263,211.52,071217,,,A*59
$GPRMC,001136.00,A,2256.88939,N,11353.68234,E,34.977,211.93,071217,,,A*51
$GPRMC,001137.00,A,2256.88107,N,11353.67655,E,35.389,213.15,071217,,,A*5F
$GPRMC,001138.00,A,2256.87260,N,11353.67065,E,36.104,213.22,071217,,,A*58
$GPRMC,001139.00,A,2256.86420,N,11353.66431,E,36.475,214.97,071217,,,A*54
$GPRMC,001140.00,A,2256.85592,N,11353.65793,E,36.342,216.00,071217,,,A*56
$GPRMC,001141.00,A,2256.84783,N,11353.65140,E,36.266,216.79,071217,,,A*55
$GPRMC,001142.00,A,2256.83973,N,11353.64480,E,36.700,217.22,071217,,,A*52
$GPRMC,001143.00,A,2256.83166,N,11353.63794,E,36.899,219.01,071217,,,A*5E
$GPRMC,001144.00,A,2256.82366,N,11353.63083,E,37.256,219.68,071217,,,A*5C
$GPRMC,001145.00,A,2256.81574,N,11353.62351,E,37.452,220.57,071217,,,A*52
$GPRMC,001146.00,A,2256.80803,N,11353.61610,E,36.910,221.79,071217,,,A*59
$GPRMC,001147.00,A,2256.80041,N,11353.60861,E,37.111,222.33,071217,,,A*5A
$GPRMC,001148.00,A,2256.79282,N,11353.60113,E,36.800,222.63,071217,,,A*5F
$GPRMC,001149.00,A,2256.78539,N,11353.59337,E,37.388,223.55,071217,,,A*58
$GPRMC,001150.00,A,2256.77810,N,11353.58556,E,36.744,224.83,071217,,,A*50
$GPRMC,001151.00,A,2256.77092,N,11353.57764,E,36.934,225.73,071217,,,A*58
$GPRMC,001152.00,A,2256.76385,N,11353.56956,E,36.937,226.61,071217,,,A*52
$GPRMC,001153.00,A,2256.75696,N,11353.56149,E,36.218,227.53,071217,,,A*57
$GPRMC,001154.00,A,2256.75036,N,11353.55351,E,35.068,228.30,071217,,,A*58
$GPRMC,001155.00,A,2256.74421,N,11353.54568,E,33.621,229.71,071217,,,A*5E
$GPRMC,001156.00,A,2256.73837,N,11353.53804,E,32.550,230.71,071217,,,A*5D
$GPRMC,001157.00,A,2256.73286,N,11353.53079,E,30.517,230.87,071217,,,A*56
$GPRMC,001158.00,A,2256.72803,N,11353.52415,E,27.342,231.87,071217,,,A*51
$GPRMC,001159.00,A,2256.72371,N,11353.51802,E,24.724,232.50,071217,,,A*59
$GPRMC,001200.00,A,2256.71978,N,11353.51206,E,24.020,236.04,071217,,,A*5E
$GPRMC,001201.00,A,2256.71595,N,11353.50577,E,25.526,236.15,071217,,,A*52
$GPRMC,001202.00,A,2256.71156,N,11353.49926,E,27.240,233.17,071217,,,A*58
$GPRMC,001203.00,A,2256.70683,N,11353.49271,E,27.763,231.80,071217,,,A*56
$GPRMC,001204.00,A,2256.70196,N,11353.48631,E,27.413,230.50,071217,,,A*5B
$GPRMC,001205.00,A,2256.69701,N,11353.47992,E,28.049,230.47,071217,,,A*51
$GPRMC,001206.00,A,2256.69185,N,11353.47340,E,28.810,229.66,071217,,,A*52
$GPRMC,001207.00,A,2256.68648,N,11353.46676,E,29.307,229.37,071217,,,A*5D
$GPRMC,001208.00,A,2256.68110,N,11353.45990,E,30.201,229.26,071217,,,A*53
$GPRMC,001209.00,A,2256.67551,N,11353.45276,E,31.552,229.45,071217,,,A*5A
$GPRMC,001210.00,A,2256.66984,N,11353.44520,E,32.712,230.51,071217,,,A*5A
$GPRMC,001211.00,A,2256.66392,N,11353.43727,E,33.931,230.44,071217,,,A*5E
$GPRMC,001212.00,A,2256.65785,N,11353.42917,E,35.000,230.81,071217,,,A*54
$GPRMC,001213.00,A,2256.65164,N,11353.42089,E,35.852,230.97,071217,,,A*5A
$GPRMC,001214.00,A,2256.64535,N,11353.41242,E,36.494,232.12,071217,,,A*50
$GPRMC,001215.00,A,2256.63901,N,11353.40370,E,37.202,231.86,071217,,,A*5A
$GPRMC,001216.00,A,2256.63252,N,11353.39473,E,38.201,231.80,071217,,,A*54
$GPRMC,001217.00,A,2256.62585,N,11353.38567,E,38.727,231.71,071217,,,A*53
$GPRMC,001218.00,A,2256.61907,N,11353.37652,E,39.187,231.55,071217,,,A*58
$GPRMC,001219.00,A,2256.61214,N,11353.36726,E,39.998,231.06,071217,,,A*53
$GPRMC,001220.00,A,2256.60518,N,11353.35779,E,40.558,231.31,071217,,,A*50
$GPRMC,001221.00,A,2256.59812,N,11353.34828,E,40.647,231.73,071217,,,A*5D
$GPRMC,001222.00,A,2256.59105,N,11353.33861,E,41.198,231.87,071217,,,A*54
$GPRMC,001223.00,A,2256.58385,N,11353.32882,E,41.669,231.41,071217,,,A*51
$GPRMC,001224.00,A,2256.57666,N,11353.31903,E,41.506,231.61,071217,,,A*52
$GPRMC,001225.00,A,2256.56947,N,11353.30921,E,41.682,231.67,071217,,,A*56
$GPRMC,001226.00,A,2256.56233,N,11353.29948,E,41.214,231.48,071217,,,A*5C
$GPRMC,001227.00,A,2256.55510,N,11353.28976,E,41.564,231.38,071217,,,A*53
$GPRMC,001228.00,A,2256.54785,N,11353.27993,E,41.909,231.34,071217,,,A*5C
$GPRMC,001229.00,A,2256.54054,N,11353.27006,E,42.140,231.45,071217,,,A*53
$GPRMC,001230.00,A,2256.53314,N,11353.26005,E,42.817,231.57,071217,,,A*51
$GPRMC,001231.00,A,2256.52582,N,11353.24999,E,42.584,231.79,071217,,,A*5D
$GPRMC,001232.00,A,2256.51854,N,11353.23973,E,43.093,232.49,071217,,,A*5A
$GPRMC,001233.00,A,2256.51137,N,11353.22951,E,42.488,232.80,071217,,,A*5C
$GPRMC,001234.00,A,2256.50447,N,11353.21929,E,41.859,234.25,071217,,,A*5E
$GPRMC,001235.00,A,2256.49759,N,11353.20930,E,41.100,233.43,071217,,,A*50
$GPRMC,001236.00,A,2256.49068,N,11353.19961,E,40.444,231.72,071217,,,A*5C
$GPRMC,001237.00,A,2256.48394,N,11353.19029,E,38.816,231.79,071217,,,A*56
$GPRMC,001238.00,A,2256.47771,N,11353.18149,E,35.943,232.63,071217,,,A*5B
$GPRMC,001239.00,A,2256.47189,N,11353.17305,E,34.635,233.19,071217,,,A*5D
$GPRMC,001240.00,A,2256.46625,N,11353.16544,E,31.513,231.11,071217,,,A*59
$GPRMC,001241.00,A,2256.46123,N,11353.15860,E,28.242,231.12,071217,,,A*59
$GPRMC,001242.00,A,2256.45676,N,11353.15254,E,24.631,231.73,071217,,,A*58
$GPRMC,001243.00,A,2256.45325,N,11353.14722,E,20.527,235.90,071217,,,A*56
$GPRMC,001244.00,A,2256.45083,N,11353.14241,E,17.537,242.28,071217,,,A*58
$GPRMC,001245.00,A,2256.44931,N,11353.13840,E,13.071,248.84,071217,,,A*5B
$GPRMC,001246.00,A,2256.44853,N,11353.13501,E,11.244,257.90,071217,,,A*58
$GPRMC,001247.00,A,2256.44844,N,11353.13138,E,12.385,270.26,071217,,,A*56
$GPRMC,001248.00,A,2256.44905,N,11353.12771,E,12.210,279.44,071217,,,A*57
$GPRMC,001249.00,A,2256.44998,N,11353.12444,E,10.918,286.80,071217,,,A*5E
$GPRMC,001250.00,A,2256.45092,N,11353.12255,E,5.708,293.50,071217,,,A*60
$GPRMC,001251.00,A,2256.45170,N,11353.12119,E,4.920,297.72,071217,,,A*66
$GPRMC,001252.00,A,2256.45269,N,11353.11966,E,7.278,306.54,071217,,,A*65
$GPRMC,001253.00,A,2256.45453,N,11353.11760,E,10.435,312.53,071217,,,A*58
$GPRMC,001254.00,A,2256.45731,N,11353.11497,E,14.262,316.76,071217,,,A*50
$GPRMC,001255.00,A,2256.46123,N,11353.11198,E,17.591,324.99,071217,,,A*55
$GPRMC,001256.00,A,2256.46591,N,11353.10869,E,20.884,327.50,071217,,,A*56
$GPRMC,001257.00,A,2256.47103,N,11353.10530,E,21.793,328.81,071217,,,A*53
$GPRMC,001258.00,A,2256.47622,N,11353.10204,E,21.487,330.55,071217,,,A*5E
$GPRMC,001259.00,A,2256.48163,N,11353.09889,E,22.436,331.92,071217,,,A*56
$GPRMC,001300.00,A,2256.48731,N,11353.09557,E,23.627,331.34,071217,,,A*5B
$GPRMC,001301.00,A,2256.49289,N,11353.09217,E,22.964,330.84,071217,,,A*5D
$GPRMC,001302.00,A,2256.49840,N,11353.08880,E,22.808,330.56,071217,,,A*50
$GPRMC,001303.00,A,2256.50396,N,11353.08575,E,22.510,333.60,071217,,,A*5C
$GPRMC,001304.00,A,2256.50974,N,11353.08316,E,22.465,337.59,071217,,,A*53
$GPRMC,001305.00,A,2256.51572,N,11353.08078,E,23.084,339.96,071217,,,A*55
$GPRMC,001306.00,A,2256.52199,N,11353.07849,E,24.215,341.95,071217,,,A*50
$GPRMC,001307.00,A,2256.52860,N,11353.07638,E,24.934,343.28,071217,,,A*5A
$GPRMC,001308.00,A,2256.53534,N,11353.07437,E,25.229,344.49,071217,,,A*53
$GPRMC,001309.00,A,2256.54225,N,11353.07250,E,25.723,345.98,071217,,,A*57
$GPRMC,001310.00,A,2256.54934,N,11353.07079,E,26.165,347.68,071217,,,A*57
$GPRMC,001311.00,A,2256.55676,N,11353.06913,E,27.512,348.06,071217,,,A*58
$GPRMC,001312.00,A,2256.56438,N,11353.06744,E,28.055,347.92,071217,,,A*57
$GPRMC,001313.00,A,2256.57223,N,11353.06563,E,29.167,347.55,071217,,,A*56
$GPRMC,001314.00,A,2256.58014,N,11353.06355,E,29.360,345.91,071217,,,A*54
$GPRMC,001315.00,A,2256.58783,N,11353.06125,E,28.518,344.21,071217,,,A*5B
$GPRMC,001316.00,A,2256.59520,N,11353.05876,E,27.112,342.24,071217,,,A*5C
$GPRMC,001317.00,A,2256.60225,N,11353.05625,E,26.372,340.75,071217,,,A*5E
$GPRMC,001318.00,A,2256.60900,N,11353.05357,E,25.656,339.65,071217,,,A*52
$GPRMC,001319.00,A,2256.61554,N,11353.05081,E,24.880,338.53,071217,,,A*57
$GPRMC,001320.00,A,2256.62174,N,11353.04795,E,23.975,336.73,071217,,,A*5B
$GPRMC,001321.00,A,2256.62763,N,11353.04503,E,22.921,334.62,071217,,,A*55
$GPRMC,001322.00,A,2256.63340,N,11353.04189,E,23.262,332.67,071217,,,A*5A
$GPRMC,001323.00,A,2256.63906,N,11353.03824,E,24.029,328.19,071217,,,A*52
$GPRMC,001324.00,A,2256.64478,N,11353.03411,E,25.000,325.22,071217,,,A*53
$GPRMC,001325.00,A,2256.65054,N,11353.02974,E,25.154,325.30,071217,,,A*55
$GPRMC,001326.00,A,2256.65623,N,11353.02551,E,24.584,325.70,071217,,,A*57
$GPRMC,001327.00,A,2256.66181,N,11353.02143,E,24.006,325.81,071217,,,A*5C
$GPRMC,001328.00,A,2256.66725,N,11353.01739,E,23.353,325.44,071217,,,A*5E
$GPRMC,001329.00,A,2256.67239,N,11353.01344,E,22.199,324.40,071217,,,A*58
$GPRMC,001330.00,A,2256.67710,N,11353.00968,E,20.473,323.15,071217,,,A*5F
$GPRMC,001331.00,A,2256.68128,N,11353.00615,E,18.448,321.51,071217,,,A*58
$GPRMC,001332.00,A,2256.68466,N,11353.00316,E,14.618,320.76,071217,,,A*5D
$GPRMC,001333.00,A,2256.68716,N,11353.00091,E,10.525,319.49,071217,,,A*5B
$GPRMC,001334.00,A,2256.68901,N,11352.99924,E,7.878,319.14,071217,,,A*69
$GPRMC,001335.00,A,2256.69017,N,11352.99813,E,4.695,318.74,071217,,,A*6B
$GPRMC,001336.00,A,2256.69065,N,11352.99761,E,1.259,319.15,071217,,,A*60
$GPRMC,001337.00,A,2256.69077,N,11352.99752,E,0.116,,071217,,,A*7A
$GPRMC,001338.00,A,2256.69078,N,11352.99748,E,0.023,,071217,,,A*76
$GPRMC,001339.00,A,2256.69081,N,11352.99750,E,0.073,,071217,,,A*7D
$GPRMC,001340.00,A,2256.69087,N,11352.99751,E,0.012,,071217,,,A*73
$GPRMC,001341.00,A,2256.69096,N,11352.99751,E,0.029,,071217,,,A*7A
$GPRMC,001342.00,A,2256.69096,N,11352.99751,E,0.026,,071217,,,A*76
$GPRMC,001343.00,A,2256.69096,N,11352.99754,E,0.114,,071217,,,A*72
$GPRMC,001344.00,A,2256.69101,N,11352.99748,E,0.108,,071217,,,A*7A
$GPRMC,001345.00,A,2256.69106,N,11352.99745,E,0.039,,071217,,,A*72
$GPRMC,001346.00,A,2256.69112,N,11352.99741,E,0.026,,071217,,,A*7E
$GPRMC,001347.00,A,2256.69109,N,11352.99735,E,0.029,,071217,,,A*79
$GPRMC,001348.00,A,2256.69112,N,11352.99737,E,0.157,,071217,,,A*76
$GPRMC,001349.00,A,2256.69118,N,11352.99737,E,0.075,,071217,,,A*7C
$GPRMC,001350.00,A,2256.69121,N,11352.99734,E,0.014,,071217,,,A*7A
$GPRMC,001351.00,A,2256.69120,N,11352.99734,E,0.047,,071217,,,A*7C
$GPRMC,001352.00,A,2256.69126,N,11352.99734,E,0.073,,071217,,,A*7E
$GPRMC,001353.00,A,2256.69129,N,11352.99736,E,0.188,,071217,,,A*77
$GPRMC,001354.00,A,2256.69127,N,11352.99741,E,0.099,,071217,,,A*7F
$GPRMC,001355.00,A,2256.69127,N,11352.99743,E,0.054,,071217,,,A*7D
$GPRMC,001356.00,A,2256.69125,N,11352.99745,E,0.067,,071217,,,A*7A
$GPRMC,001357.00,A,2256.69128,N,11352.99746,E,0.085,,071217,,,A*79
$GPRMC,001358.00,A,2256.69133,N,11352.99751,E,0.055,,071217,,,A*77
$GPRMC,001359.00,A,2256.69133,N,11352.99751,E,0.111,,071217,,,A*77
$GPRMC,001400.00,A,2256.69137,N,11352.99751,E,0.017,,071217,,,A*7F
$GPRMC,001401.00,A,2256.69133,N,11352.99753,E,0.060,,071217,,,A*78
$GPRMC,001402.00,A,2256.69115,N,11352.99752,E,0.213,,071217,,,A*78
$GPRMC,001403.00,A,2256.69108,N,11352.99752,E,0.104,,071217,,,A*70
$GPRMC,001404.00,A,2256.69111,N,11352.99744,E,0.069,,071217,,,A*72
$GPRMC,001405.00,A,2256.69111,N,11352.99740,E,0.092,,071217,,,A*73
$GPRMC,001406.00,A,2256.69109,N,11352.99739,E,0.021,,071217,,,A*7F
$GPRMC,001407.00,A,2256.69111,N,11352.99738,E,0.034,,071217,,,A*72
$GPRMC,001408.00,A,2256.69108,N,11352.99741,E,0.036,,071217,,,A*79
$GPRMC,001409.00,A,2256.69103,N,11352.99737,E,0.090,,071217,,,A*7E
$GPRMC,001410.00,A,2256.69109,N,11352.99735,E,0.079,,071217,,,A*79
$GPRMC,001411.00,A,2256.69114,N,11352.99731,E,0.036,,071217,,,A*7B
$GPRMC,001412.00,A,2256.69113,N,11352.99732,E,0.027,,071217,,,A*7C
$GPRMC,001413.00,A,2256.69119,N,11352.99729,E,0.183,,071217,,,A*72
$GPRMC,001414.00,A,2256.69124,N,11352.99729,E,0.030,,071217,,,A*72
$GPRMC,001415.00,A,2256.69121,N,11352.99728,E,0.079,,071217,,,A*7A
$GPRMC,001416.00,A,2256.69121,N,11352.99732,E,0.134,,071217,,,A*7A
$GPRMC,001417.00,A,2256.69122,N,11352.99729,E,0.093,,071217,,,A*7E
$GPRMC,001418.00,A,2256.69125,N,11352.99728,E,0.099,,071217,,,A*7D
$GPRMC,001419.00,A,2256.69126,N,11352.99732,E,0.085,,071217,,,A*79
$GPRMC,001420.00,A,2256.69125,N,11352.99735,E,0.058,,071217,,,A*77
$GPRMC,001421.00,A,2256.69124,N,11352.99737,E,0.021,,071217,,,A*7B
$GPRMC,001422.00,A,2256.69122,N,11352.99737,E,0.171,,071217,,,A*7A
$GPRMC,001423.00,A,2256.69124,N,11352.99743,E,0.044,,071217,,,A*79
$GPRMC,001424.00,A,2256.69128,N,11352.99745,E,0.068,,071217,,,A*7A
$GPRMC,001425.00,A,2256.69127,N,11352.99752,E,0.085,,071217,,,A*71
$GPRMC,001426.00,A,2256.69132,N,11352.99760,E,0.056,,071217,,,A*79
$GPRMC,001427.00,A,2256.69136,N,11352.99763,E,0.135,,071217,,,A*7B
$GPRMC,001428.00,A,2256.69136,N,11352.99768,E,0.064,,071217,,,A*7A
$GPRMC,001429.00,A,2256.69132,N,11352.99772,E,0.065,,071217,,,A*75
$GPRMC,001430.00,A,2256.69138,N,11352.99774,E,0.127,,071217,,,A*76
$GPRMC,001431.00,A,2256.69142,N,11352.99780,E,0.064,,071217,,,A*77
$GPRMC,001432.00,A,2256.69150,N,11352.99782,E,0.123,,071217,,,A*77
$GPRMC,001433.00,A,2256.69153,N,11352.99781,E,0.139,,071217,,,A*7D
$GPRMC,001434.00,A,2256.69162,N,11352.99782,E,0.042,,071217,,,A*76
$GPRMC,001435.00,A,2256.69157,N,11352.99787,E,0.071,,071217,,,A*74
$GPRMC,001436.00,A,2256.69157,N,11352.99793,E,0.058,,071217,,,A*79
$GPRMC,001437.00,A,2256.69156,N,11352.99793,E,0.082,,071217,,,A*7E
$GPRMC,001438.00,A,2256.69158,N,11352.99789,E,0.112,,071217,,,A*7C
$GPRMC,001439.00,A,2256.69162,N,11352.99789,E,0.146,,071217,,,A*75
$GPRMC,001440.00,A,2256.69161,N,11352.99789,E,0.111,,071217,,,A*7A
$GPRMC,001441.00,A,2256.69158,N,11352.99789,E,0.038,,071217,,,A*7B
$GPRMC,001442.00,A,2256.69163,N,11352.99790,E,0.094,,071217,,,A*7E
$GPRMC,001443.00,A,2256.69166,N,11352.99789,E,0.053,,071217,,,A*79
$GPRMC,001444.00,A,2256.69170,N,11352.99788,E,0.091,,071217,,,A*76
$GPRMC,001445.00,A,2256.69170,N,11352.99787,E,0.019,,071217,,,A*78
$GPRMC,001446.00,A,2256.69167,N,11352.99790,E,0.104,,071217,,,A*76
$GPRMC,001447.00,A,2256.69163,N,11352.99787,E,0.128,,071217,,,A*7B
$GPRMC,001448.00,A,2256.69145,N,11352.99790,E,0.267,,071217,,,A*7E
$GPRMC,001449.00,A,2256.69140,N,11352.99794,E,0.083,,071217,,,A*76
$GPRMC,001450.00,A,2256.69136,N,11352.99799,E,0.045,,071217,,,A*78
$GPRMC,001451.00,A,2256.69149,N,11352.99787,E,0.811,316.50,071217,,,A*68
$GPRMC,001452.00,A,2256.69207,N,11352.99724,E,4.023,316.39,071217,,,A*69
$GPRMC,001453.00,A,2256.69332,N,11352.99600,E,6.990,317.01,071217,,,A*61
$GPRMC,001454.00,A,2256.69505,N,11352.99421,E,9.081,316.04,071217,,,A*67
$GPRMC,001455.00,A,2256.69712,N,11352.99193,E,11.203,314.62,071217,,,A*5D
$GPRMC,001456.00,A,2256.69963,N,11352.98917,E,13.497,313.54,071217,,,A*58
$GPRMC,001457.00,A,2256.70226,N,11352.98585,E,14.835,310.64,071217,,,A*5F
$GPRMC,001458.00,A,2256.70480,N,11352.98212,E,15.376,304.75,071217,,,A*5B
$GPRMC,001459.00,A,2256.70653,N,11352.97803,E,14.786,293.19,071217,,,A*5C
$GPRMC,001500.00,A,2256.70680,N,11352.97343,E,15.583,268.62,071217,,,A*5E
$GPRMC,001501.00,A,2256.70547,N,11352.96867,E,16.733,249.80,071217,,,A*5E
$GPRMC,001502.00,A,2256.70244,N,11352.96396,E,19.094,233.89,071217,,,A*5D
$GPRMC,001503.00,A,2256.69864,N,11352.95902,E,21.581,229.23,071217,,,A*59
$GPRMC,001504.00,A,2256.69439,N,11352.95374,E,23.489,228.55,071217,,,A*5A
$GPRMC,001505.00,A,2256.68970,N,11352.94803,E,25.657,228.57,071217,,,A*55
